,FHRSID,LocalAuthorityBusinessID,BusinessName,BusinessType,PostCode,RatingValue,RatingKey,RatingDate,LocalAuthorityCode,LocalAuthorityName,Longitude,Latitude
0,1438654,21/00856/FOOD,1st Base Catering,Mobile caterer,E20 2ST,AwaitingInspection,fhrs_awaitinginspection_en-GB,,525,Newham,-0.01806600019336,51.53879928588870
1,1132140,19/00459/FOOD,53.5 Degrees,Restaurant/Cafe/Canteen,E16 2RD,5,fhrs_5_en-GB,2019-05-10,525,Newham,0.06475700000000,51.50740500000000
2,1132134,19/00447/FOOD,53.5 Degrees,Restaurant/Cafe/Canteen,E15 4LZ,5,fhrs_5_en-GB,2019-05-14,525,Newham,0.00980900000000,51.54339500000000
3,1260384,20/00288/FOOD,55 Square Limited,Restaurant/Cafe/Canteen,E16 1EN,2,fhrs_2_en-GB,2020-12-09,525,Newham,0.01241700000000,51.51751400000000
4,1389145,21/00354/FOOD,7 Mamas Ltd,Takeaway/sandwich shop,E6 3HN,5,fhrs_5_en-GB,2022-01-05,525,Newham,0.05537200000000,51.52780300000000
5,680560,13/00452/COMM,7 Till 11 Uk Ltd,Retailers - other,E7 9BY,4,fhrs_4_en-GB,2019-09-13,525,Newham,0.01778100000000,51.55015600000000
6,849344,74760/0518/0/000,777 Shops,Retailers - other,E7 8AF,1,fhrs_1_en-GB,2020-02-27,525,Newham,0.03990200000000,51.54812700000000
7,1031405,18/00068/FOOD,786HYE Limited,Retailers - other,E12 6HN,3,fhrs_3_en-GB,2018-03-06,525,Newham,0.06128800000000,51.54929200000000
8,1366503,21/00173/FOOD,8 Slices Pizzeria,Restaurant/Cafe/Canteen,E16 1AT,5,fhrs_5_en-GB,2021-06-23,525,Newham,0.02110000000000,51.50755400000000
9,992959,17/00428/FOOD,A Cafe & Cream Corner,Restaurant/Cafe/Canteen,E12 6RH,4,fhrs_4_en-GB,2017-11-09,525,Newham,0.04922499880195,51.54597854614260
10,864146,78550/0026/0/000,A D S News,Retailers - other,E6 1NQ,5,fhrs_5_en-GB,2018-10-12,525,Newham,0.04972500000000,51.53465600000000
11,846603,77650/2005/0/000,A J Harvey,Retailers - other,E15 1XA,5,fhrs_5_en-GB,2020-02-29,525,Newham,0.00049600000000,51.54117100000000
12,641085,74740/0684/0/000,A1 Kebabish Grill Ltd,Takeaway/sandwich shop,E12 5AJ,5,fhrs_5_en-GB,2020-12-10,525,Newham,0.05126300000000,51.55185000000000
13,1417285,21/00672/FOOD,AA Halal Meat And Grocers,Retailers - other,E15 1XQ,1,fhrs_1_en-GB,2021-10-11,525,Newham,0.00137800000000,51.54194910000000
14,1105617,19/00186/FOOD,Aaliyams Cuisine,Mobile caterer,E13 8HL,5,fhrs_5_en-GB,2019-06-14,525,Newham,0.02072500000000,51.52122900000000
15,1220613,20/00046/FOOD,Aarna Kitchen,Other catering premises,E12 5JG,5,fhrs_5_en-GB,2020-09-07,525,Newham,0.05724100000000,51.55391300000000
16,1250627,20/00224/FOOD,AB Chef,Other catering premises,E6 1LB,5,fhrs_5_en-GB,2020-08-28,525,Newham,0.04841120000000,51.53219770000000
17,919633,61130/0384/0/000,Abbey Arms,Pub/bar/nightclub,E15 1SY,5,fhrs_5_en-GB,2018-07-31,525,Newham,0.01070740000000,51.55206810000000
18,1289898,20/00564/FOOD,ABC Valentina Ltd,Retailers - other,E6 1ER,3,fhrs_3_en-GB,2020-12-05,525,Newham,0.04598100000000,51.53636700000000
19,1079198,18/00401/FOOD,Abundant Grace,Retailers - other,E15 4AL,4,fhrs_4_en-GB,2019-02-12,525,Newham,0.01106020000000,51.53880680000000
20,1339319,21/00069/FOOD,Abundant Life Housing Services Limited,Retailers - other,E15 1SP,5,fhrs_5_en-GB,2021-09-01,525,Newham,0.01268600020558,51.55074691772460
21,1274364,20/00403/FOOD,Achus Food And Wine,Retailers - other,E20 1DB,3,fhrs_3_en-GB,2020-11-27,525,Newham,-0.00783200003207,51.54831695556640
22,1471237,22/00628/FOOD,Ackeee Tree - HAF Project,Other catering premises,E7 8LE,AwaitingInspection,fhrs_awaitinginspection_en-GB,,525,Newham,0.03235300000000,51.53989500000000
23,1471238,22/00629/FOOD,Ackeee Tree Childrens Club - HAF Project,Other catering premises,E7 8JT,AwaitingInspection,fhrs_awaitinginspection_en-GB,,525,Newham,0.03243000060320,51.54161071777340
24,1318411,20/00476/FOOD,Adagio Aparthotel Stratford,Hotel/bed & breakfast/guest house,E12 6PS,5,fhrs_5_en-GB,2021-05-25,525,Newham,0.05709499865770,51.54428482055660
25,1104279,18/00574/FOOD,Adnans Charcoal Grill,Takeaway/sandwich shop,E15 1AJ,5,fhrs_5_en-GB,2019-01-16,525,Newham,-0.00194300001021,51.53848648071290
26,1018832,17/00640/FOOD,Afters Original (E7) Ltd,Restaurant/Cafe/Canteen,E7 8BD,5,fhrs_5_en-GB,2021-08-07,525,Newham,0.02740580000000,51.54643880000000
27,1006732,17/00416/FOOD,Agas Foods Ltd,Manufacturers/packers,E13 0QZ,Exempt,fhrs_exempt_en-GB,2017-09-13,525,Newham,0.03106690000000,51.53764340000000
28,996126,17/00457/FOOD,Agora,Restaurant/Cafe/Canteen,E12 6PQ,5,fhrs_5_en-GB,2020-02-25,525,Newham,0.04956200000000,51.54386700000000
29,1414858,21/00653/FOOD,Aguia D Ouro,Retailers - other,E16 1FD,AwaitingInspection,fhrs_awaitinginspection_en-GB,,525,Newham,0.02156300000000,51.50823900000000
30,1217988,20/00020/FOOD,Ahmads,Restaurant/Cafe/Canteen,E7 8NP,5,fhrs_5_en-GB,2020-11-11,525,Newham,0.03675200000000,51.54346100000000
31,768215,15/00005/FOOD,Ahmed Halal Meat,Retailers - other,E6 2AA,4,fhrs_4_en-GB,2019-04-06,525,Newham,0.05523800000000,51.53954200000000
32,1453329,22/00050/FOOD,Ainas Swedish Bakery,Other catering premises,E6 1HU,AwaitingInspection,fhrs_awaitinginspection_en-GB,,525,Newham,0.05262900000000,51.53445300000000
33,1217990,20/00023/FOOD,Airline Cafe,Restaurant/Cafe/Canteen,E6 2JX,4,fhrs_4_en-GB,2020-03-11,525,Newham,0.05679900000000,51.53354300000000
34,805368,69790/0404/0/000,Akro Pharmacy,Retailers - other,E7 9LW,5,fhrs_5_en-GB,2018-08-24,525,Newham,0.02588500000000,51.54296600000000
35,718160,14/00934/FOOD,Akshyis Events,Other catering premises,E6 1AD,2,fhrs_2_en-GB,2015-12-07,525,Newham,0.03637500000000,51.53728900000000
36,1360508,21/00159/FOOD,Akua Treats,Other catering premises,E12 5JG,5,fhrs_5_en-GB,2021-07-06,525,Newham,0.05724100000000,51.55391300000000
37,1381304,21/00322/FOOD,Akwaibom Kitchen African Takeaway,Other catering premises,E12 5AW,3,fhrs_3_en-GB,2021-11-09,525,Newham,0.04877800000000,51.55144400000000
38,1434023,21/00822/FOOD,Al Abbas Pure Halal,Retailers - other,E13 8EB,AwaitingInspection,fhrs_awaitinginspection_en-GB,,525,Newham,0.02237700000000,51.52305400000000
39,965668,17/00273/FOOD,Al Farooq Kebabish,Takeaway/sandwich shop,E7 9PA,3,fhrs_3_en-GB,2020-12-12,525,Newham,0.02627800000000,51.54500900000000
40,845332,16/00007/FOOD,Al Farooq Kebabish,Takeaway/sandwich shop,E7 0EL,1,fhrs_1_en-GB,2020-03-02,525,Newham,0.02450900000000,51.54908780000000
41,1132143,19/00462/FOOD,Al Harmain,Retailers - other,E16 1AT,3,fhrs_3_en-GB,2019-04-16,525,Newham,0.02110000000000,51.50755400000000
42,737497,14/00529/FOOD,Al Hashim Khyber Restaurant,Other catering premises,E6 3BA,1,fhrs_1_en-GB,2020-12-05,525,Newham,0.05270000000000,51.53250900000000
43,771897,13/01494/FOOD,Al Kareem Sweets & Bakers,Manufacturers/packers,E7 9LN,5,fhrs_5_en-GB,2019-06-03,525,Newham,0.02575420000000,51.54529830000000
44,1438943,22/00010/FOOD,Al Khalifa,Restaurant/Cafe/Canteen,E7 9LN,AwaitingInspection,fhrs_awaitinginspection_en-GB,,525,Newham,0.02575420000000,51.54529830000000
45,785565,13/01265/COMM,Al Madina Butcher,Retailers - other,E6 1AD,3,fhrs_3_en-GB,2019-11-05,525,Newham,0.03637600000000,51.53729000000000
46,1104276,17/00439/COMM,Al Madina Halal Meat And Fish Ltd,Retailers - other,E7 8JQ,4,fhrs_4_en-GB,2019-01-14,525,Newham,0.03225900000000,51.54295500000000
47,667123,14/00222/FOOD,Al Masar/Bonnane Pizza,Restaurant/Cafe/Canteen,E13 8EQ,2,fhrs_2_en-GB,2021-03-06,525,Newham,0.01777500000000,51.52035400000000
48,1170225,19/00713/FOOD,Al Rehman Halal Meat,Retailers - other,E15 1TQ,0,fhrs_0_en-GB,2022-01-17,525,Newham,0.00563000000000,51.55036400000000
49,1341355,19/00959/COMM,Ala Pizza,Takeaway/sandwich shop,E7 8LT,2,fhrs_2_en-GB,2019-08-29,525,Newham,0.03728760000000,51.54196880000000
50,641160,78210/0028/0/000,A'la Pizza,Takeaway/sandwich shop,E16 4HB,3,fhrs_3_en-GB,2021-02-13,525,Newham,0.00912800000000,51.51647400000000
51,1256010,20/00253/FOOD,Aladdins Mahal,Restaurant/Cafe/Canteen,E6 1LB,3,fhrs_3_en-GB,2021-10-25,525,Newham,0.04916400000000,51.53242600000000
52,640349,10/00165/FOOD,Alauddin Sweet Centre,Retailers - other,E13 9AP,3,fhrs_3_en-GB,2018-12-14,525,Newham,0.03453000000000,51.53663800000000
53,640270,08/00407/FOOD,Albina,Restaurant/Cafe/Canteen,E12 5AD,5,fhrs_5_en-GB,2018-05-17,525,Newham,0.04537100000000,51.55009200000000
54,1360510,21/00161/FOOD,Albinuta,Retailers - other,E7 0LJ,1,fhrs_1_en-GB,2021-06-23,525,Newham,0.03287000000000,51.55246700000000
55,1296097,20/00633/FOOD,Albinuta,Retailers - other,E13 9BA,4,fhrs_4_en-GB,2020-12-30,525,Newham,0.03398600000000,51.53447100000000
56,1196455,19/00867/FOOD,Alenka Shop,Retailers - other,E13 9BA,AwaitingInspection,fhrs_awaitinginspection_en-GB,,525,Newham,0.03398600000000,51.53447200000000
57,1197653,19/00911/FOOD,Alexs Turkish Restaurant,Restaurant/Cafe/Canteen,E13 9BA,3,fhrs_3_en-GB,2020-07-02,525,Newham,0.03398599848151,51.53447341918950
58,640301,09/00127/FOOD,Ali And Sons Halal Meat & Poultry,Retailers - other,E13 9JU,3,fhrs_3_en-GB,2021-10-11,525,Newham,0.03079520000000,51.52667690000000
59,640173,05/00032/COMM,Ali Catering And Events Ltd,Other catering premises,E13 9AZ,5,fhrs_5_en-GB,2019-12-20,525,Newham,0.03980400040746,51.53268814086910
60,864104,16/00233/FOOD,Ali Ices Ltd,Distributors/Transporters,E12 6AQ,3,fhrs_3_en-GB,2018-04-04,525,Newham,0.05314000000000,51.54771700000000
61,852765,16/00164/FOOD,Ali Meat Ltd,Retailers - other,E20 1ET,1,fhrs_1_en-GB,2016-02-11,525,Newham,-0.00635900022462,51.54434585571290
62,641063,74230/0021/0/000,Alis Meat Market/Upton Park Meats,Retailers - other,E20 2DU,3,fhrs_3_en-GB,2018-08-22,525,Newham,0.03217300000000,51.54458400000000
63,979277,17/00302/FOOD,Alisha Fish Bazaar,Retailers - other,E7 8JF,4,fhrs_4_en-GB,2017-10-26,525,Newham,0.00021200000000,51.54654500000000
64,1471223,22/00369/FOOD,Alkaline Roots Mini Market,Retailers - other,E15 1QA,AwaitingInspection,fhrs_awaitinginspection_en-GB,,525,Newham,0.00438900000000,51.53885600000000
65,987109,17/00363/FOOD,All About Canteen,Other catering premises,E15 4SA,5,fhrs_5_en-GB,2018-09-27,525,Newham,0.03677400000000,51.54555600000000
66,640882,63830/2012/2/000,All Nations Church,Other catering premises,E7 8DP,5,fhrs_5_en-GB,2017-01-11,525,Newham,0.03536100000000,51.50841300000000
67,640410,11/00095/FOOD,All Star Lanes - Unit LC01  (Bowling  Alley),Restaurant/Cafe/Canteen,E16 1FR,5,fhrs_5_en-GB,2018-11-24,525,Newham,0.04003000000000,51.55485200000000
68,1396748,21/00414/FOOD,All Stars Kitchens,Takeaway/sandwich shop,E7 0JT,AwaitingInspection,fhrs_awaitinginspection_en-GB,,525,Newham,0.02761800000000,51.53393400000000
69,971775,16/00496/FOOD,Allstars Gourmet,Takeaway/sandwich shop,E13 0SE,4,fhrs_4_en-GB,2020-03-04,525,Newham,0.05925100000000,51.51090100000000
70,851151,14/00051/FOOD,Alma Convenience Store,Retailers - other,E6 5NB,4,fhrs_4_en-GB,2020-02-07,525,Newham,0.05033500000000,51.54115600000000
71,765304,15/00150/FOOD,Almond Polish Delicatessen,Retailers - other,E12 6SJ,5,fhrs_5_en-GB,2017-07-20,525,Newham,0.05736000000000,51.53865000000000
72,979273,17/00294/FOOD,Alnuur Cafe & Restaurant Ltd,Restaurant/Cafe/Canteen,E6 2BT,4,fhrs_4_en-GB,2021-02-24,525,Newham,0.05770400000000,51.53636000000000
73,817849,12/00277/FOOD,Aloft Hotel London Excel,Hotel/bed & breakfast/guest house,E6 2BX,5,fhrs_5_en-GB,2020-01-27,525,Newham,0.05096000000000,51.55217100000000
74,860739,63210/0165/3/001,Alpam Homes The Chace,Other catering premises,E12 5AN,5,fhrs_5_en-GB,2020-02-25,525,Newham,0.02574600000000,51.54503700000000
75,640937,68620/2003/2/000,Alphabet House Day Nursery,Hospitals/Childcare/Caring Premises,E7 9LN,5,fhrs_5_en-GB,2021-02-10,525,Newham,0.05096000000000,51.55217000000000
76,640900,65440/2005/2/001,Alphabet House Nursery School ( FOOD USE ),School/college/university,E12 5AN,5,fhrs_5_en-GB,2021-04-20,525,Newham,0.03218280000000,51.54359530000000
77,640662,12/00831/FOOD,Alppa Pan Unit 1,Retailers - other,E7 8JG,1,fhrs_1_en-GB,2016-06-13,525,Newham,-0.00693290000000,51.53558000000000
78,1018838,17/00650/FOOD,Altmore Arms,Retailers - other,E15 2GE,5,fhrs_5_en-GB,2018-01-12,525,Newham,0.03413430000000,51.53464050000000
79,897405,60540/2001/2/000,Altmore Primary School,School/college/university,E13 9BA,5,fhrs_5_en-GB,2021-03-17,525,Newham,0.05779299885035,51.51443481445310
80,919583,16/00593/FOOD,Alvi Kebabs Ltd,Takeaway/sandwich shop,E6 5LX,4,fhrs_4_en-GB,2019-01-16,525,Newham,0.03637420000000,51.54315380000000
81,960238,17/00206/FOOD,Amaan Halal Butchers,Retailers - other,E7 8LS,3,fhrs_3_en-GB,2019-05-02,525,Newham,0.03445200000000,51.54719700000000
82,937747,74740/0779/0/000,Amar Cash And Carry,Retailers - other,E7 8DF,5,fhrs_5_en-GB,2017-04-05,525,Newham,-0.00012740000000,51.54182190000000
83,1130115,14/00489/FOOD,Ambala,Retailers - other,E15 1XE,5,fhrs_5_en-GB,2019-05-16,525,Newham,-0.00775099422222,51.53961302148470
84,1130155,19/00395/FOOD,Amber Court (Savills Catering Limited),Hospitals/Childcare/Caring Premises,E6 3DJ,5,fhrs_5_en-GB,2020-12-11,525,Newham,0.04668000000000,51.52944000000000
85,1436221,21/00847/FOOD,Ambition Aspire Achieve - HAF Project,Other catering premises,E7 8LL,AwaitingInspection,fhrs_awaitinginspection_en-GB,,525,Newham,0.03295900000000,51.54183600000000
86,852779,74230/2020/0/000,Ambrosa,Retailers - other,E12 6SB,4,fhrs_4_en-GB,2019-02-07,525,Newham,0.05096100000000,51.54097500000000
87,1193625,19/00855/FOOD,American Bagel,Restaurant/Cafe/Canteen,E7 8JT,5,fhrs_5_en-GB,2020-02-11,525,Newham,0.03241580000000,51.54202650000000
88,1132115,19/00424/FOOD,American Sweetz,Restaurant/Cafe/Canteen,E16 4HB,5,fhrs_5_en-GB,2019-10-02,525,Newham,0.00912800000000,51.51647400000000
89,1356842,21/00151/FOOD,Amesh Chicken,Takeaway/sandwich shop,E15 1XE,3,fhrs_3_en-GB,2021-04-15,525,Newham,-0.00012740000000,51.54182190000000
90,1341358,21/00082/FOOD,Amigos Burgers And Shakes,Takeaway/sandwich shop,E6 1JB,5,fhrs_5_en-GB,2021-06-14,525,Newham,0.05112000000000,51.53809400000000
91,1207809,19/01061/FOOD,Amorino,Restaurant/Cafe/Canteen,E13 9DB,4,fhrs_4_en-GB,2019-12-23,525,Newham,0.03655710000000,51.53271000000000
92,640876,63420/0165/0/000,Amy News And Off Licence,Retailers - other,E13 8EE,3,fhrs_3_en-GB,2020-02-21,525,Newham,0.02102800000000,51.52189000000000
93,727358,68150/0229/0/000,Anand Pan Centre,Retailers - other,E7 0EL,3,fhrs_3_en-GB,2020-03-02,525,Newham,0.02441900000000,51.54894400000000
94,1350118,21/00107/FOOD,Ananda Bhavan Limited,Restaurant/Cafe/Canteen,E13 0QZ,4,fhrs_4_en-GB,2021-05-26,525,Newham,0.03104200000000,51.53764300000000
95,1089065,18/00509/FOOD,Anando Bazar,Retailers - other,E6 1QN,5,fhrs_5_en-GB,2019-01-15,525,Newham,0.04394400000000,51.53241900000000
96,934055,16/00767/FOOD,Andys Buffet Restaurant,Restaurant/Cafe/Canteen,E20 1DH,4,fhrs_4_en-GB,2019-11-01,525,Newham,-0.01051930000000,51.54702890000000
97,1424548,21/00735/FOOD,Angel Fried Chicken,Takeaway/sandwich shop,E15 1XD,AwaitingInspection,fhrs_awaitinginspection_en-GB,,525,Newham,-0.00071400000000,51.54152400000000
98,785587,15/00330/FOOD,Angelicas Market Ltd,Retailers - other,E13 0SE,4,fhrs_4_en-GB,2018-03-27,525,Newham,0.02761800000000,51.53393400000000
99,1197654,19/00912/FOOD,Angelina Cafe,Restaurant/Cafe/Canteen,E6 1BX,1,fhrs_1_en-GB,2019-10-08,525,Newham,0.04538660000000,51.53958850000000
100,640363,10/00269/FOOD,Angels Bakery,Other catering premises,E7 0EW,2,fhrs_2_en-GB,2020-02-24,525,Newham,0.02540099993348,51.55089569091800
101,817873,79460/0051/0/000,Angies Stock Shop,Retailers - other,E6 7FB,4,fhrs_4_en-GB,2018-07-26,525,Newham,0.07722300000000,51.51216700000000
102,641052,73980/0199/0/000,Annapuran Sweetmart Ltd,Retailers - other,E15 4NQ,5,fhrs_5_en-GB,2020-02-18,525,Newham,0.00888000000000,51.54423900000000
103,776163,04/00056/COMM,Annie  MHK London,Other catering premises,E16 2RD,3,fhrs_3_en-GB,2018-11-29,525,Newham,0.06475700000000,51.50740500000000
104,1294173,20/00585/FOOD,Anthony City Bakery,Other catering premises,E16 4JT,AwaitingInspection,fhrs_awaitinginspection_en-GB,,525,Newham,0.01362600000000,51.52270900000000
105,1214460,19/00616/FOOD,Anu's Kitchen,Other catering premises,E6 2LW,5,fhrs_5_en-GB,2020-02-22,525,Newham,0.06325900000000,51.53420300000000
106,992956,17/00425/FOOD,Appetite London,Retailers - other,E7 9LW,3,fhrs_3_en-GB,2020-03-14,525,Newham,0.02588400000000,51.54296600000000
107,654118,77650/0028/0/000,Apple Jacks,Retailers - other,E20 1EQ,5,fhrs_5_en-GB,2019-10-25,525,Newham,-0.00635900022462,51.54434585571290
108,960229,17/00098/FOOD,Applecart Arts Cafe,Restaurant/Cafe/Canteen,E6 3BA,5,fhrs_5_en-GB,2017-04-26,525,Newham,0.05270000000000,51.53250900000000
109,1438653,21/00855/FOOD,Applecartlive Ltd,Restaurant/Cafe/Canteen,E15 1XE,AwaitingInspection,fhrs_awaitinginspection_en-GB,,525,Newham,-0.00012740000000,51.54182190000000
110,1158040,19/00731/FOOD,Arabica,Other catering premises,E7 9BB,1,fhrs_1_en-GB,2020-01-20,525,Newham,0.02215900000000,51.54936100000000
111,849319,60725/2000/2/000,Aramark,Other catering premises,E12 5FB,5,fhrs_5_en-GB,2018-09-27,525,Newham,0.06283400000000,51.55223200000000
112,1134974,19/00476/FOOD,Aramark Shop,Retailers - other,E6 3BD,5,fhrs_5_en-GB,2019-05-14,525,Newham,0.04475600000000,51.53123600000000
113,1132139,19/00457/FOOD,Aramark Shop,Retailers - other,E15 4PH,5,fhrs_5_en-GB,2019-05-09,525,Newham,0.00354190000000,51.53999670000000
114,965647,17/00235/FOOD,Arc In The Park,Hospitals/Childcare/Caring Premises,E20 1GP,5,fhrs_5_en-GB,2017-06-07,525,Newham,-0.00635900000000,51.54434500000000
115,840109,10/00151/FOOD,Ardealu,Retailers - other,E12 6TJ,3,fhrs_3_en-GB,2017-05-02,525,Newham,0.04845200000000,51.54707900000000
116,1214474,19/01124/FOOD,Ariannes Cakehouse,Other catering premises,E16 3HJ,5,fhrs_5_en-GB,2020-08-25,525,Newham,0.03698900000000,51.51226200000000
117,1214468,19/01118/FOOD,Aris CND Mini Market,Retailers - other,E15 1SU,3,fhrs_3_en-GB,2020-03-11,525,Newham,0.01127370000000,51.55182460000000
118,1061937,18/00274/FOOD,Arket Within H&M,Restaurant/Cafe/Canteen,E6 5JP,5,fhrs_5_en-GB,2018-08-10,525,Newham,0.05774600000000,51.51490300000000
119,765273,14/01043/FOOD,Armin Supermarket,Retailers - other,E15 1SQ,3,fhrs_3_en-GB,2018-03-21,525,Newham,0.00542000000000,51.54918900000000
120,1379065,21/00306/FOOD,Aroma Authentic Dum Biriyani,Takeaway/sandwich shop,E6 3RW,3,fhrs_3_en-GB,2021-06-14,525,Newham,0.05643700063229,51.52584457397460
121,771896,13/01493/FOOD,Aromas Restaurant,Restaurant/Cafe/Canteen,E12 6SL,4,fhrs_4_en-GB,2020-03-04,525,Newham,0.04981630000000,51.54285650000000
122,747704,14/00404/FOOD,Arps Stores - Stores Day 1,Retailers - other,E20 1ET,5,fhrs_5_en-GB,2019-11-07,525,Newham,-0.00650899996981,51.54364013671880
123,1099840,19/00069/FOOD,Arte D Cozinha Ltd TA Sabor & Arte,Restaurant/Cafe/Canteen,E7 9HA,4,fhrs_4_en-GB,2020-12-08,525,Newham,0.02418200000000,51.54652100000000
124,785576,14/00613/FOOD,Artisan Breads,Mobile caterer,E6 6LP,5,fhrs_5_en-GB,2019-10-31,525,Newham,0.06569400000000,51.51920500000000
125,1411034,21/00598/FOOD,Artizian Catering Services Ltd,Other catering premises,E20 1ET,5,fhrs_5_en-GB,2021-11-15,525,Newham,-0.00635900000000,51.54434600000000
126,805335,12/00237/FOOD,As Nature Intended,Retailers - other,E20 1ET,5,fhrs_5_en-GB,2018-07-30,525,Newham,-0.00635900000000,51.54434600000000
127,849305,16/00102/FOOD,Asad Cash & Carry,Retailers - other,E20 1ET,2,fhrs_2_en-GB,2016-01-20,525,Newham,-0.00635900022462,51.54434585571290
128,640857,61350/2001/2/000,Ascension Church Centre,Other catering premises,E12 5JF,4,fhrs_4_en-GB,2019-11-12,525,Newham,0.05587290000000,51.55404550000000
129,1250625,20/00222/FOOD,Ascension Supported Living,Hospitals/Childcare/Caring Premises,E7 8JT,4,fhrs_4_en-GB,2021-06-01,525,Newham,0.03243400000000,51.54172800000000
130,641007,70705/0001/0/000,Asda Stores,Retailers - supermarkets/hypermarkets,E13 8DN,4,fhrs_4_en-GB,2020-01-16,525,Newham,0.01869990000000,51.52178700000000
131,1018847,17/00674/FOOD,Aseda Trading,Retailers - other,E7 8DR,2,fhrs_2_en-GB,2019-06-11,525,Newham,0.03630900000000,51.54549200000000
132,1241917,20/00160/FOOD,Ashes,Restaurant/Cafe/Canteen,E15 3ET,3,fhrs_3_en-GB,2020-03-09,525,Newham,0.01262300000000,51.53362600000000
133,1399999,21/00480/FOOD,Asian Pearl Seafoods,Retailers - other,E15 1TQ,5,fhrs_5_en-GB,2021-08-10,525,Newham,0.00563000000000,51.55036400000000
134,1275979,20/00428/FOOD,Ask Italian,Restaurant/Cafe/Canteen,E6 1HW,5,fhrs_5_en-GB,2020-12-04,525,Newham,0.05186200000000,51.53502400000000
135,641100,74760/0305/0/000,Asona Ba,Retailers - other,E16 4LF,3,fhrs_3_en-GB,2019-01-25,525,Newham,0.01235500000000,51.52035800000000
136,849290,13/01445/FOOD,Asorti Ltd,Retailers - other,E13 9AU,4,fhrs_4_en-GB,2018-11-01,525,Newham,0.03612940000000,51.53416820000000
137,640498,11/00560/FOOD,Aspers (Casino Entrance) - Clary's Restaurant,Restaurant/Cafe/Canteen,E12 6AR,4,fhrs_4_en-GB,2019-11-12,525,Newham,0.05044900000000,51.55074100000000
138,640563,12/00166/FOOD,Aspers (Casino Entrance) - Sky Bar,Pub/bar/nightclub,E16 1YZ,5,fhrs_5_en-GB,2012-03-27,525,Newham,0.01714000000000,51.50476310000000
139,640562,12/00165/FOOD,Aspers (Casino Entrance) - Tanzibar,Pub/bar/nightclub,E7 9HA,5,fhrs_5_en-GB,2012-03-27,525,Newham,0.02418200000000,51.54652100000000
140,1079201,18/00406/FOOD,Aston Mansfield Community Centre,Other catering premises,E16 4ST,5,fhrs_5_en-GB,2018-10-17,525,Newham,0.00373800000000,51.51778900000000
141,817863,68150/0170/0/000,Aswat And Sons,Retailers - other,E12 5QA,5,fhrs_5_en-GB,2018-10-25,525,Newham,0.05806700000000,51.55238800000000
142,1151969,19/00640/FOOD,Atara Foods Takeaway,Other catering premises,E13 9BA,5,fhrs_5_en-GB,2020-02-15,525,Newham,0.03398600000000,51.53447200000000
143,1343971,21/00090/FOOD,Atawakal,Retailers - other,E6 6LH,1,fhrs_1_en-GB,2021-02-17,525,Newham,0.06966890000000,51.52300260000000
144,1204825,19/00977/FOOD,ATL Cafe,Restaurant/Cafe/Canteen,E16 3AR,AwaitingInspection,fhrs_awaitinginspection_en-GB,,525,Newham,0.02549000000000,51.51068900000000
145,852735,09/00223/FOOD,Atlantic Fish Bar,Other catering premises,E7 0NF,3,fhrs_3_en-GB,2019-10-18,525,Newham,0.02501240000000,51.54957830000000
146,1204824,19/00976/FOOD,Audreys 3Cs,Other catering premises,E13 0SL,4,fhrs_4_en-GB,2020-03-06,525,Newham,0.03290700000000,51.53648600000000
147,1106471,18/00405/FOOD,Aunt Sallys Cafe,Restaurant/Cafe/Canteen,E6 2HT,5,fhrs_5_en-GB,2019-02-12,525,Newham,0.05230200000000,51.53680500000000
148,1069287,18/00323/FOOD,Auntie Nanas,Restaurant/Cafe/Canteen,E6 7FF,4,fhrs_4_en-GB,2020-12-05,525,Newham,0.08476180000000,51.51510940000000
149,640923,68140/0409/0/000,Auntie's Bakery,Retailers - other,E13 9AX,3,fhrs_3_en-GB,2020-02-24,525,Newham,0.03721600000000,51.53286000000000
150,996127,17/00458/FOOD,Avas Banana Pudding,Mobile caterer,E16 1XL,5,fhrs_5_en-GB,2017-10-04,525,Newham,0.02710700000000,51.50817000000000
151,641019,71630/2000/2/000,Avenue Primary School Kitchen,School/college/university,E12 5AF,5,fhrs_5_en-GB,2019-04-24,525,Newham,0.04495100000000,51.54949720000000
152,1422788,21/00725/FOOD,Awesome Burgers Awesome Wings Loaded Wraps Egg Stop Super,Restaurant/Cafe/Canteen,E7 9HD,AwaitingInspection,fhrs_awaitinginspection_en-GB,,525,Newham,0.02457000000000,51.54616300000000
153,1318413,21/00002/FOOD,Ayans Grill And Catering,Restaurant/Cafe/Canteen,E12 5PJ,3,fhrs_3_en-GB,2021-07-09,525,Newham,0.05944100000000,51.54990900000000
154,1231317,19/00230/FOOD,Aydil,Restaurant/Cafe/Canteen,E7 9NF,4,fhrs_4_en-GB,2020-02-12,525,Newham,0.02456800080836,51.54351043701170
155,1067409,18/00305/FOOD,Ayinkes Catering,Other catering premises,E13 8AF,5,fhrs_5_en-GB,2019-03-22,525,Newham,0.02376500000000,51.52672500000000
156,654099,13/00099/FOOD,Azhar Academy Ltd,Retailers - other,E13 8EB,4,fhrs_4_en-GB,2018-10-11,525,Newham,0.02237700000000,51.52305400000000
157,641061,74230/0016/0/000,B & M Foods,Retailers - other,E13 8RA,3,fhrs_3_en-GB,2019-02-07,525,Newham,0.02425600000000,51.52870400000000
158,919477,16/00125/FOOD,B & M Stores,Retailers - other,E20 1EN,4,fhrs_4_en-GB,2019-11-15,525,Newham,-0.00635900000000,51.54434500000000
159,640908,67390/0023/0/000,B J Wines,Retailers - other,E12 6SJ,5,fhrs_5_en-GB,2018-10-26,525,Newham,0.05033400000000,51.54115600000000
160,1411026,21/00589/FOOD,Baba Food,Restaurant/Cafe/Canteen,E13 8AF,5,fhrs_5_en-GB,2021-09-14,525,Newham,0.02376600000000,51.52672600000000
161,965661,17/00265/FOOD,Baba Slavyanka,Other catering premises,E20 1AS,4,fhrs_4_en-GB,2018-11-27,525,Newham,-0.00613200000000,51.54820800000000
162,1207807,19/01058/FOOD,Baba Turkish Kebab,Takeaway/sandwich shop,E7 0EW,4,fhrs_4_en-GB,2019-12-10,525,Newham,0.02540100000000,51.55089700000000
163,1132114,19/00423/FOOD,Babcock Beckton,Other catering premises,E6 1ED,5,fhrs_5_en-GB,2020-02-13,525,Newham,0.03588140000000,51.53630980000000
164,1379044,21/00284/FOOD,Bad Boys Diner,Takeaway/sandwich shop,E6 3BB,AwaitingInspection,fhrs_awaitinginspection_en-GB,,525,Newham,0.04860600000000,51.53187000000000
165,1455104,22/00129/FOOD,Bag A Bagel,Other catering premises,E13 8QE,AwaitingInspection,fhrs_awaitinginspection_en-GB,,525,Newham,0.02861600000000,51.52526600000000
166,919374,09/00256/FOOD,Bagel Factory,Retailers - other,E6 1PY,5,fhrs_5_en-GB,2018-11-22,525,Newham,0.04022700000000,51.53086500000000
167,1245711,20/00187/FOOD,Bagel Town,Restaurant/Cafe/Canteen,E16 4LF,3,fhrs_3_en-GB,2020-08-18,525,Newham,0.01235500000000,51.52035700000000
168,1294194,20/00609/FOOD,Baked By LV,Other catering premises,E15 1EG,5,fhrs_5_en-GB,2021-02-25,525,Newham,0.00463420000000,51.54614700000000
169,1099812,18/00882/FOOD,Bakers Choice Ltd,Retailers - other,E16 1EN,5,fhrs_5_en-GB,2019-02-04,525,Newham,0.01241700000000,51.51751400000000
170,1083376,18/00457/FOOD,Bakers Court Nursing Centre,Hospitals/Childcare/Caring Premises,E16 4HQ,5,fhrs_5_en-GB,2018-10-12,525,Newham,0.01220400000000,51.51791400000000
171,1245701,20/00177/FOOD,Bakes & Bloom,Other catering premises,E6 1HZ,5,fhrs_5_en-GB,2020-11-13,525,Newham,0.05252590000000,51.53544400000000
172,1379061,21/00302/FOOD,Bakes And Toppers,Other catering premises,E7 0NE,5,fhrs_5_en-GB,2021-09-24,525,Newham,0.02464200000000,51.54942600000000
173,982294,17/00346/FOOD,Bakes By Amina,Other catering premises,E12 5AD,5,fhrs_5_en-GB,2020-03-03,525,Newham,0.04537100000000,51.55009200000000
174,1171354,19/00768/FOOD,Bakes N Stuffingz,Other catering premises,E6 2JT,5,fhrs_5_en-GB,2019-10-29,525,Newham,0.05510300000000,51.53336600000000
175,1010362,17/00593/FOOD,Balaam Confectionery And Grocery Store,Retailers - other,E6 2LN,4,fhrs_4_en-GB,2019-06-12,525,Newham,0.06026200000000,51.53393200000000
176,640386,10/00433/FOOD,Balaam Supermarket,Retailers - other,E15 3BT,4,fhrs_4_en-GB,2020-02-27,525,Newham,0.00579700000000,51.52792400000000
177,919451,14/01168/FOOD,Balaam SuperStore Supermarket,Retailers - other,E20 1JN,5,fhrs_5_en-GB,2017-01-03,525,Newham,-0.01063789945793,51.54231583061190
178,640547,12/00089/FOOD,Balans - Unit 1090A,Restaurant/Cafe/Canteen,E7 8JG,5,fhrs_5_en-GB,2019-02-04,525,Newham,0.03167160000000,51.54474620000000
179,1130121,19/00249/FOOD,Bali Maamalas,Restaurant/Cafe/Canteen,E15 4HG,1,fhrs_1_en-GB,2020-09-10,525,Newham,0.01070860000000,51.54097110000000
180,1204821,19/00973/FOOD,Bamboo Garden Sushi,Takeaway/sandwich shop,E6 4EN,4,fhrs_4_en-GB,2020-09-02,525,Newham,0.00578100000000,51.54689100000000
181,1403852,21/00520/FOOD,Ban Be Limited,Restaurant/Cafe/Canteen,E15 1JA,5,fhrs_5_en-GB,2021-11-19,525,Newham,0.03563330000000,51.53713870000000
182,1018831,17/00636/FOOD,Bangla Cash & Carry,Retailers - other,E6 1AE,5,fhrs_5_en-GB,2021-10-11,525,Newham,0.01513590000000,51.51713610000000
183,1471231,22/00620/FOOD,Bangla Para,Restaurant/Cafe/Canteen,E16 1PY,AwaitingInspection,fhrs_awaitinginspection_en-GB,,525,Newham,0.06247100000000,51.51104200000000
184,640761,13/01538/FOOD,Bangladesh Bazar,Retailers - other,E6 5NG,3,fhrs_3_en-GB,2019-02-12,525,Newham,0.02624600000000,51.54104400000000
185,849323,61130/0532/0/000,Bangladesh Cash And Carry,Retailers - other,E7 9PH,4,fhrs_4_en-GB,2018-10-23,525,Newham,0.03752200000000,51.54165800000000
186,1028285,18/00054/FOOD,Banjos,Restaurant/Cafe/Canteen,E7 8LT,5,fhrs_5_en-GB,2020-02-01,525,Newham,0.02237900000000,51.52310700000000
187,864126,68920/0042/2/000,Bantuway (Food Service) Ltd,Retailers - other,E13 8EB,4,fhrs_4_en-GB,2020-03-06,525,Newham,0.05940090000000,51.55486490000000
188,852753,16/00138/FOOD,Bar One Thailander Bar,Pub/bar/nightclub,E12 5JR,3,fhrs_3_en-GB,2018-02-12,525,Newham,0.07722300000000,51.51216700000000
189,1051863,18/00181/FOOD,Barbara Cakes,Other catering premises,E6 7FB,5,fhrs_5_en-GB,2019-03-22,525,Newham,0.03012500000000,51.52613000000000
190,1006766,17/00562/FOOD,Barbary Chocolates,Other catering premises,E13 9JU,5,fhrs_5_en-GB,2017-10-20,525,Newham,0.01876400000000,51.52969000000000
191,849308,16/00106/FOOD,Bargain Food Centre,Retailers - other,E13 0DH,Exempt,fhrs_exempt_en-GB,2018-10-26,525,Newham,0.01013000000000,51.51632200000000
192,1042954,18/00107/FOOD,Bargain Halal Meat Centre,Retailers - other,E16 1EH,5,fhrs_5_en-GB,2018-03-13,525,Newham,0.02540000000000,51.55089600000000
193,852773,69050/0081/0/000,Bargain World,Retailers - other,E7 0EW,3,fhrs_3_en-GB,2020-02-06,525,Newham,0.05715490000000,51.51433780000000
194,1289905,20/00573/FOOD,Barista Loco,Restaurant/Cafe/Canteen,E6 5LX,5,fhrs_5_en-GB,2021-03-13,525,Newham,0.01199030000000,51.53373700000000
195,640393,10/00502/FOOD,Barkat And Sons Halal Meat Limited,Retailers - other,E15 3ET,5,fhrs_5_en-GB,2019-09-05,525,Newham,0.02574600000000,51.54503700000000
196,770157,61150/0391/0/000,Barking Food And Wine,Retailers - other,E7 9LN,5,fhrs_5_en-GB,2017-07-25,525,Newham,0.00438900000000,51.53885600000000
197,805321,06/00057/FOOD,Barking Road Post Office,Retailers - other,E15 4SA,5,fhrs_5_en-GB,2018-07-31,525,Newham,0.03752200000000,51.54165800000000
198,782845,11/00589/FOOD,Barney Bears Nursery,Hospitals/Childcare/Caring Premises,E7 8LT,5,fhrs_5_en-GB,2020-10-11,525,Newham,0.05270000000000,51.53250900000000
199,1136929,19/00253/FOOD,Bartlett Mitchell - Financial Conduct Authority,Other catering premises,E6 3BA,5,fhrs_5_en-GB,2019-10-22,525,Newham,0.02953570000000,51.52525980000000
200,1350106,21/00094/FOOD,Bashars Halal Ltd,Retailers - other,E13 8QG,AwaitingInspection,fhrs_awaitinginspection_en-GB,,525,Newham,0.06143950000000,51.51697840000000
201,1275964,20/00411/FOOD,Basil Pizza,Takeaway/sandwich shop,E6 6LA,4,fhrs_4_en-GB,2021-10-06,525,Newham,0.03368300000000,51.53866800000000
202,640331,10/00038/FOOD,Bavish Food And Wine,Retailers - other,E7 8LH,2,fhrs_2_en-GB,2015-12-23,525,Newham,0.04295200000000,51.53860500000000
203,1276527,20/00443/FOOD,BBQ Express,Takeaway/sandwich shop,E6 1BX,3,fhrs_3_en-GB,2020-02-25,525,Newham,0.05067170000000,51.53914380000000
204,1274369,20/00409/FOOD,BBQ Junction,Other catering premises,E6 1JG,5,fhrs_5_en-GB,2020-12-24,525,Newham,0.01479300000000,51.53248300000000
205,1214461,19/00775/FOOD,BD Coffee House,Restaurant/Cafe/Canteen,E15 3EU,1,fhrs_1_en-GB,2019-12-12,525,Newham,0.03484430000000,51.53439440000000
206,817867,72250/0001/0/000,Beckton Arms,Pub/bar/nightclub,E13 9BA,4,fhrs_4_en-GB,2018-08-10,525,Newham,-0.00671310000000,51.54344320000000
207,640250,08/00176/FOOD,Beckton Fish Bar,Takeaway/sandwich shop,E20 1EN,4,fhrs_4_en-GB,2020-03-09,525,Newham,0.05272300000000,51.53303000000000
208,1438945,22/00012/FOOD,Beddoes Bakehouse,Other catering premises,E6 1LA,AwaitingInspection,fhrs_awaitinginspection_en-GB,,525,Newham,0.00417100000000,51.54276300000000
209,865857,69510/0017/0/000,Beechwood R C H,Hospitals/Childcare/Caring Premises,E15 1EL,5,fhrs_5_en-GB,2020-02-10,525,Newham,0.07989800000000,51.52564500000000
210,1471224,22/00613/FOOD,Bees Kitchen,Takeaway/sandwich shop,IG11 0AD,AwaitingInspection,fhrs_awaitinginspection_en-GB,,525,Newham,0.05766760000000,51.52283600000000
211,1343968,21/00084/FOOD,Beijing House,Takeaway/sandwich shop,E6 3PG,4,fhrs_4_en-GB,2021-03-20,525,Newham,0.05969000000000,51.55447300000000
212,1472168,22/00639/FOOD,Bejo Patisserie,Other catering premises,E12 5JP,AwaitingInspection,fhrs_awaitinginspection_en-GB,,525,Newham,0.03104200000000,51.53764300000000
213,1389147,21/00356/FOOD,Bel Pomodoro,Restaurant/Cafe/Canteen,E13 0QZ,3,fhrs_3_en-GB,2021-10-05,525,Newham,0.05573600000000,51.54453300000000
214,837090,15/00565/FOOD,Bella Italia Restaurants Limited,Restaurant/Cafe/Canteen,E12 6RB,5,fhrs_5_en-GB,2020-02-15,525,Newham,0.01199030000000,51.53373700000000
215,801822,15/00295/FOOD,Bella Vista Restaurant,Restaurant/Cafe/Canteen,E15 3ET,5,fhrs_5_en-GB,2021-02-06,525,Newham,0.05265500000000,51.55267100000000
216,946044,17/00039/FOOD,Bengal Supermarket,Retailers - other,E12 6EA,3,fhrs_3_en-GB,2019-01-17,525,Newham,0.00550070110606,51.54623043755010
217,805324,08/00107/FOOD,Berg Pharmacy,Retailers - other,E15 1JA,5,fhrs_5_en-GB,2018-08-09,525,Newham,0.02459460000000,51.51659550000000
218,849304,16/00101/FOOD,Berket Food Centre,Retailers - other,E16 3PG,5,fhrs_5_en-GB,2020-02-18,525,Newham,0.02072500000000,51.52122900000000
219,1157379,19/00716/FOOD,Berneliu Uzeiga - Shepherds Inn,Pub/bar/nightclub,E13 8HL,4,fhrs_4_en-GB,2021-02-06,525,Newham,0.07989800000000,51.52564500000000
220,1245697,20/00173/FOOD,Best Halal Grill,Restaurant/Cafe/Canteen,IG11 0AD,3,fhrs_3_en-GB,2020-09-29,525,Newham,0.05429080000000,51.55286810000000
221,1225030,20/00075/FOOD,Best Kebab House,Takeaway/sandwich shop,E12 6BU,3,fhrs_3_en-GB,2020-02-10,525,Newham,0.05576400000000,51.53138500000000
222,1231342,20/00138/FOOD,Best One,Retailers - other,E6 6EN,1,fhrs_1_en-GB,2021-02-09,525,Newham,0.05602800000000,51.52701900000000
223,960234,17/00186/FOOD,Best Roaster Grill & Cafe,Restaurant/Cafe/Canteen,E6 3RL,3,fhrs_3_en-GB,2021-03-11,525,Newham,0.04683900000000,51.55132500000000
224,765300,15/00109/FOOD,Best Turkish Kebab,Takeaway/sandwich shop,E12 5BP,4,fhrs_4_en-GB,2020-02-01,525,Newham,0.05269499868155,51.55266189575200
225,1174547,19/00789/FOOD,Bestoland,Retailers - other,E12 6EA,5,fhrs_5_en-GB,2019-09-13,525,Newham,0.03398600000000,51.53447100000000
226,1276525,20/00441/FOOD,Bevs Cafe,Restaurant/Cafe/Canteen,E13 9BA,5,fhrs_5_en-GB,2020-12-15,525,Newham,0.02914000000000,51.55065200000000
227,640642,12/00679/FOOD,Bharat Food Store Roots,Retailers - other,E7 0NH,3,fhrs_3_en-GB,2021-03-13,525,Newham,-0.01145599968731,51.54264450073240
228,864131,73970/0167/0/000,Bharuchi Halal Meat Corner,Retailers - other,E20 1JQ,1,fhrs_1_en-GB,2021-10-11,525,Newham,0.00559999980032,51.55037307739260
229,1396752,21/00418/FOOD,Bibiji,Other catering premises,E15 1TQ,5,fhrs_5_en-GB,2021-12-01,525,Newham,0.02241800000000,51.53308000000000
230,1214476,19/01126/FOOD,Big B Charcoal Grill,Restaurant/Cafe/Canteen,E13 0LP,5,fhrs_5_en-GB,2020-01-24,525,Newham,0.03584420000000,51.53709280000000
231,1196454,19/00845/FOOD,Big Bite Chicken And Grill,Takeaway/sandwich shop,E6 1AE,2,fhrs_2_en-GB,2019-12-03,525,Newham,-0.02025800000000,51.53913840000000
232,1339323,21/00073/FOOD,Big Boys Burgers Limited,Takeaway/sandwich shop,E20 2AA,AwaitingInspection,fhrs_awaitinginspection_en-GB,,525,Newham,-0.01393670000000,51.53623450000000
233,1411032,21/00596/FOOD,Big Easy Westfield (Stratford),Restaurant/Cafe/Canteen,E20 2AE,4,fhrs_4_en-GB,2021-11-04,525,Newham,0.02889210000000,51.52667390000000
234,1400010,21/00491/FOOD,Big Eat German Doner Ltd,Takeaway/sandwich shop,E13 0BG,5,fhrs_5_en-GB,2021-10-27,525,Newham,0.03910800000000,51.53068600000000
235,1431791,21/00802/FOOD,Big Jo's Dinners,Restaurant/Cafe/Canteen,E6 1PW,AwaitingInspection,fhrs_awaitinginspection_en-GB,,525,Newham,0.04032600000000,51.53050300000000
236,640384,10/00424/FOOD,Big Moe's Diner,Restaurant/Cafe/Canteen,E6 3BP,5,fhrs_5_en-GB,2021-02-21,525,Newham,-0.01806600019336,51.53879928588870
237,1377050,21/00267/FOOD,Big Mummys Kitchen,Restaurant/Cafe/Canteen,E20 2ST,5,fhrs_5_en-GB,2021-09-23,525,Newham,0.03225900000000,51.54295500000000
238,640756,13/01463/FOOD,Big Papas Peri Peri,Takeaway/sandwich shop,E7 8JQ,3,fhrs_3_en-GB,2020-12-05,525,Newham,0.02588500000000,51.54296600000000
239,640710,13/00715/FOOD,BIP Cash & Carry,Retailers - other,E7 9LW,1,fhrs_1_en-GB,2019-08-14,525,Newham,0.06163100153208,51.52851867675780
240,801824,15/00382/FOOD,Birchwood House,Hospitals/Childcare/Caring Premises,E6 6BT,4,fhrs_4_en-GB,2020-02-21,525,Newham,0.06285950000000,51.52703440000000
241,1389155,21/00372/FOOD,Biryani Flavas,Restaurant/Cafe/Canteen,E6 6DQ,1,fhrs_1_en-GB,2021-10-19,525,Newham,0.03243400000000,51.54172800000000
242,1269682,20/00344/FOOD,Bismillah Sobji Bazaar,Retailers - other,E7 8JT,2,fhrs_2_en-GB,2020-12-07,525,Newham,-0.00635900022462,51.54434585571290
243,1250629,20/00226/FOOD,Bistro,Restaurant/Cafe/Canteen,E20 1EQ,2,fhrs_2_en-GB,2020-09-16,525,Newham,-0.00634700013325,51.54433441162110
244,1400007,21/00488/FOOD,Bistro@203,Restaurant/Cafe/Canteen,E20 1EH,5,fhrs_5_en-GB,2021-10-12,525,Newham,0.03452900000000,51.53663800000000
245,640819,61130/0330/0/000,BJ's Pie And Mash Shop,Restaurant/Cafe/Canteen,E13 9AP,5,fhrs_5_en-GB,2019-03-01,525,Newham,0.05230200000000,51.53680500000000
246,1081960,18/00428/FOOD,Black & White Lounge,Restaurant/Cafe/Canteen,E6 2HT,5,fhrs_5_en-GB,2019-03-24,525,Newham,0.07722300000000,51.51216700000000
247,1438944,22/00011/FOOD,Bladez Of Doner,Takeaway/sandwich shop,E6 7FB,AwaitingInspection,fhrs_awaitinginspection_en-GB,,525,Newham,-0.00071400000000,51.54152500000000
248,846588,11/00539/FOOD,Blakeberry Chemists,Retailers - other,E15 1XD,Exempt,fhrs_exempt_en-GB,2019-03-31,525,Newham,0.03958200000000,51.52516500000000
249,805366,69060/0096/0/000,Blakeberry Ltd,Retailers - other,E13 9QF,5,fhrs_5_en-GB,2018-07-26,525,Newham,0.00838300000000,51.54277200000000
250,1316181,20/00721/FOOD,Blakesley Arms,Pub/bar/nightclub,E15 4LY,5,fhrs_5_en-GB,2021-08-19,525,Newham,0.06733000000000,51.51872600000000
251,1225021,20/00065/FOOD,Blaze,Takeaway/sandwich shop,E6 6LW,5,fhrs_5_en-GB,2020-08-18,525,Newham,0.02618100000000,51.50253900000000
252,919416,12/00783/FOOD,Blessed Assurance,Retailers - other,E16 2BB,5,fhrs_5_en-GB,2017-04-06,525,Newham,0.04649000000000,51.52489300000000
253,1434025,21/00824/FOOD,Bliss,Other catering premises,E6 3LB,AwaitingInspection,fhrs_awaitinginspection_en-GB,,525,Newham,0.05415600000000,51.53859000000000
254,770147,15/00178/FOOD,Blossoms Nursery Academy,Hospitals/Childcare/Caring Premises,E6 2BH,5,fhrs_5_en-GB,2021-03-18,525,Newham,0.02442000000000,51.54894400000000
255,1196468,19/00900/FOOD,Blue Apple Catering At Cancer Research UK,Other catering premises,E7 0EL,5,fhrs_5_en-GB,2020-01-10,525,Newham,0.01215090000000,51.51117520000000
256,1158038,19/00057/FOOD,Blue River Cafe,Restaurant/Cafe/Canteen,E16 1XJ,4,fhrs_4_en-GB,2021-01-16,525,Newham,0.00137800000000,51.54194910000000
257,996130,17/00468/FOOD,Blues Bakery Ltd,Other catering premises,E15 1XQ,5,fhrs_5_en-GB,2020-02-16,525,Newham,0.02394320000000,51.53015880000000
258,640178,05/00127/FOOD,BNK Grocers,Retailers - other,E13 0BW,4,fhrs_4_en-GB,2019-04-24,525,Newham,0.04242300000000,51.52870500000000
259,1396722,21/00382/FOOD,Boba Blast Bubble Tea,Restaurant/Cafe/Canteen,E16 4LF,4,fhrs_4_en-GB,2021-10-22,525,Newham,0.01714000000000,51.50476310000000
260,1260378,20/00282/FOOD,Bobby Moore Academy Primary,School/college/university,E6 3DW,5,fhrs_5_en-GB,2021-04-27,525,Newham,0.07019060000000,51.49986360000000
261,1250626,20/00223/FOOD,Bobby Moore Academy Secondary And Sixth Form School,School/college/university,E16 1YZ,5,fhrs_5_en-GB,2020-12-04,525,Newham,0.08033900000000,51.51697700000000
262,1130159,19/00399/FOOD,Bocachica,Other catering premises,E16 2ST,5,fhrs_5_en-GB,2019-05-18,525,Newham,0.04292650000000,51.50267990000000
263,1094190,18/00633/FOOD,Boi Gordo Butchers And Grocery Ltd,Retailers - other,E6 7ER,5,fhrs_5_en-GB,2019-03-28,525,Newham,0.02710800000000,51.50817000000000
264,830636,61150/0007/0/000,Boleyn Cinema,Retailers - other,E16 2DA,4,fhrs_4_en-GB,2018-11-01,525,Newham,-0.00260250000000,51.54598060000000
265,864048,07/00187/FOOD,Boleyn Supermarket,Retailers - other,E16 1XL,5,fhrs_5_en-GB,2019-01-23,525,Newham,0.00339610000000,51.54849730000000
266,1193623,19/00853/FOOD,Bombay Darbar,Mobile caterer,E15 1GL,4,fhrs_4_en-GB,2021-03-29,525,Newham,0.04687800000000,51.53193600000000
267,1411024,21/00587/FOOD,Bomboniere4U,Other catering premises,E15 1JW,5,fhrs_5_en-GB,2022-02-19,525,Newham,-0.00021600000000,51.53907000000000
268,1127628,15/00541/COMM,Bon Appetit Staff Canteen London Stadium,Restaurant/Cafe/Canteen,E6 1LD,3,fhrs_3_en-GB,2019-03-29,525,Newham,0.02102800000000,51.52189000000000
269,640928,68150/0130/0/000,Bondor Bazaar Cash And Carry,Retailers - other,E15 4QZ,2,fhrs_2_en-GB,2020-02-28,525,Newham,0.02678900000000,51.50522600000000
270,640584,12/00259/FOOD,Bondor Cash And Carry,Retailers - other,E13 8EE,1,fhrs_1_en-GB,2021-11-30,525,Newham,0.00794900000000,51.53588200000000
271,1284517,20/00520/FOOD,Bonny Downs Church Hall,Other catering premises,E16 1UQ,AwaitingInspection,fhrs_awaitinginspection_en-GB,,525,Newham,0.00542000000000,51.54919000000000
272,1263275,20/00314/FOOD,Bonny Downs Community Association,Retailers - other,E15 3HX,3,fhrs_3_en-GB,2021-08-25,525,Newham,0.02462950000000,51.54660370000000
273,817843,09/00233/FOOD,Bonoful Indian Sweets,Retailers - other,E15 1SQ,5,fhrs_5_en-GB,2017-04-18,525,Newham,0.01777500000000,51.52035400000000
274,830629,12/00108/FOOD,Boost Juice Bars (UK) Ltd,Retailers - other,E7 9HA,5,fhrs_5_en-GB,2018-11-19,525,Newham,0.00049600000000,51.54117100000000
275,640459,11/00366/FOOD,Boots UK Ltd,Retailers - other,E13 8EQ,5,fhrs_5_en-GB,2019-03-18,525,Newham,0.04922500000000,51.54597800000000
276,919666,68150/0384/0/000,Boots UK Ltd,Retailers - other,E15 1XA,Exempt,fhrs_exempt_en-GB,2018-10-18,525,Newham,0.00049600000000,51.54117200000000
277,846598,69050/0082/0/000,Boots UK Ltd,Retailers - other,E12 6RH,5,fhrs_5_en-GB,2018-10-26,525,Newham,0.05643700000000,51.52584300000000
278,805352,60725/3000/2/015,Boots UK Ltd,Retailers - other,E15 1XA,5,fhrs_5_en-GB,2018-08-07,525,Newham,0.03311300000000,51.53922660000000
279,641144,77650/0031/0/000,Boots UK Ltd,Retailers - other,E6 3RW,5,fhrs_5_en-GB,2018-08-28,525,Newham,0.05508200000000,51.54442700000000
280,919488,16/00317/FOOD,Boundary Food Express Ltd,Retailers - other,E7 8PD,4,fhrs_4_en-GB,2019-11-18,525,Newham,0.05690200000000,51.54575400000000
281,641097,74750/0115/0/000,Bow Cafe,Restaurant/Cafe/Canteen,E12 6RD,5,fhrs_5_en-GB,2019-08-27,525,Newham,0.01352200000000,51.53700100000000
282,1284514,20/00517/FOOD,Boxed Tropics,Other catering premises,E12 6RA,5,fhrs_5_en-GB,2020-10-02,525,Newham,0.02051300000000,51.53110700000000
283,1272884,20/00377/FOOD,Boysies Burger Bar,Mobile caterer,E15 3QJ,4,fhrs_4_en-GB,2020-08-25,525,Newham,0.03311300000000,51.53922660000000
284,667126,14/00274/FOOD,BP Silvertown Service Station,Retailers - other,E13 0AD,3,fhrs_3_en-GB,2018-12-24,525,Newham,0.05315700000000,51.53433500000000
285,640859,62470/1000/2/000,Brampton Primary School,School/college/university,E7 8PD,4,fhrs_4_en-GB,2021-03-17,525,Newham,-0.00635900000000,51.54434500000000
286,982297,17/00354/FOOD,Bran,Retailers - other,E6 1HS,3,fhrs_3_en-GB,2019-02-07,525,Newham,0.07580400000000,51.50758800000000
287,1316184,20/00724/FOOD,Brasa Ltd,Restaurant/Cafe/Canteen,E20 1EQ,2,fhrs_2_en-GB,2021-02-13,525,Newham,0.03300490000000,51.53874290000000
288,1398410,21/00473/FOOD,Brass Monkey Ice Cream,Retailers - other,E16 2BF,4,fhrs_4_en-GB,2021-10-26,525,Newham,0.03100200000000,51.52736500000000
289,1403845,21/00510/FOOD,Brasserie Mary B,Restaurant/Cafe/Canteen,E7 8LF,5,fhrs_5_en-GB,2021-11-18,525,Newham,0.00014170000000,51.54170940000000
290,1252987,20/00241/FOOD,Bravos Pkles,Other catering premises,E13 9EZ,4,fhrs_4_en-GB,2020-09-18,525,Newham,0.01772520000000,51.50482590000000
291,1263278,20/00317/FOOD,Brazil Club Food,Other catering premises,E15 1XD,4,fhrs_4_en-GB,2020-12-08,525,Newham,0.05928900000000,51.55486600000000
292,1438658,21/00860/FOOD,Brazilian Pizza & Esfiha UK,Takeaway/sandwich shop,E16 2AA,AwaitingInspection,fhrs_awaitinginspection_en-GB,,525,Newham,0.00438900000000,51.53885700000000
293,1094179,18/00616/FOOD,Bread Club / Central Park Cafe,Restaurant/Cafe/Canteen,E12 5JR,5,fhrs_5_en-GB,2019-03-04,525,Newham,-0.00635900000000,51.54434500000000
294,1377045,21/00260/FOOD,Breadmeister,Retailers - other,E15 4SA,5,fhrs_5_en-GB,2021-08-17,525,Newham,0.00179700000000,51.55012400000000
295,1383116,21/00338/FOOD,Break For Pleasure,Other catering premises,E20 1GL,5,fhrs_5_en-GB,2021-11-10,525,Newham,-0.00021600000000,51.53907000000000
296,1107739,19/00203/FOOD,Breakfree Respite Care,Hospitals/Childcare/Caring Premises,E15 1NA,5,fhrs_5_en-GB,2020-10-01,525,Newham,0.00980900000000,51.54339500000000
297,1422786,21/00722/FOOD,Brick Lane Bagel Co,Mobile caterer,E15 4QZ,5,fhrs_5_en-GB,2022-02-07,525,Newham,0.01235500000000,51.52035700000000
298,864129,72440/2042/2/000,Brick Lane Music Hall,Other catering premises,E15 4LZ,5,fhrs_5_en-GB,2018-10-01,525,Newham,0.00838200000000,51.54277200000000
299,845330,15/00791/FOOD,Bridge Restaurant & Bar,Restaurant/Cafe/Canteen,E16 4LF,5,fhrs_5_en-GB,2020-01-27,525,Newham,-0.00635900022462,51.54434585571290
300,1366504,21/00174/FOOD,Bright Little Stars Stratford Ltd,Hospitals/Childcare/Caring Premises,E15 4LY,AwaitingInspection,fhrs_awaitinginspection_en-GB,,525,Newham,0.02574600000000,51.54503700000000
301,1414028,21/00647/FOOD,Bright Sparks,Other catering premises,E20 1GL,4,fhrs_4_en-GB,2022-02-08,525,Newham,0.00663100000000,51.51678740000000
302,1217981,20/00012/FOOD,Brigittes Hungarian Delicacy,Mobile caterer,E7 9LN,4,fhrs_4_en-GB,2020-02-17,525,Newham,0.04435540000000,51.54972340000000
303,1047546,18/00168/FOOD,Brit Local,Retailers - other,E16 4PA,4,fhrs_4_en-GB,2020-02-28,525,Newham,0.03748600000000,51.50210000000000
304,746075,69030/0359/0/000,Britanico,Restaurant/Cafe/Canteen,E12 5AD,5,fhrs_5_en-GB,2020-02-14,525,Newham,0.05228520000000,51.55253450000000
305,640822,61130/0355/0/000,Britannia Cafe,Restaurant/Cafe/Canteen,E16 2FN,4,fhrs_4_en-GB,2020-09-21,525,Newham,0.00414200000000,51.53946400000000
306,919619,16/00664/FOOD,Britannia Village Market,Retailers - other,E12 6EA,5,fhrs_5_en-GB,2020-03-05,525,Newham,0.07030999660492,51.52307128906250
307,805322,06/00222/COMM,Brittania Pharmacy,Retailers - other,E15 4PH,5,fhrs_5_en-GB,2018-08-01,525,Newham,0.07459980000000,51.50551440000000
308,641004,70570/0072/0/000,Brompton News,Retailers - other,E6 6LH,Exempt,fhrs_exempt_en-GB,2017-10-13,525,Newham,0.05143680000000,51.53238750000000
309,1076884,18/00339/FOOD,Bronze Royale,Restaurant/Cafe/Canteen,E16 2GT,5,fhrs_5_en-GB,2019-03-26,525,Newham,0.04857560000000,51.54670010000000
310,640588,12/00275/FOOD,Bronze Wine Bar And Restaurant,Pub/bar/nightclub,E6 3BA,2,fhrs_2_en-GB,2020-02-18,525,Newham,-0.00635900000000,51.54434500000000
311,805385,77650/2019/0/000,Brooks (Fruit & Veg),Retailers - other,E12 6TJ,5,fhrs_5_en-GB,2019-01-16,525,Newham,-0.00634700013325,51.54433441162110
312,1427054,21/00746/FOOD,Brothers Food Store (London) Ltd,Retailers - other,E20 1EN,3,fhrs_3_en-GB,2021-11-18,525,Newham,-0.00635900000000,51.54434500000000
313,696062,13/00866/FOOD,Brown Bread - Stratford Indoor Market,Retailers - other,E20 1GN,2,fhrs_2_en-GB,2018-01-17,525,Newham,-0.00447899987921,51.54121780395510
314,640981,69060/0124/0/000,Brown Stores,Retailers - other,E20 1EN,5,fhrs_5_en-GB,2019-09-04,525,Newham,0.00605100020766,51.51700210571290
315,1396737,21/00399/FOOD,Brown Sugar,Restaurant/Cafe/Canteen,E15 1AZ,4,fhrs_4_en-GB,2021-12-06,525,Newham,0.04483210000000,51.54941830000000
316,860720,09/00334/FOOD,Browning Off Licence,Retailers - other,E16 4PA,4,fhrs_4_en-GB,2020-02-21,525,Newham,0.02393970000000,51.50180420000000
317,1318412,21/00001/FOOD,Browning PFC,Takeaway/sandwich shop,E12 5AF,2,fhrs_2_en-GB,2020-12-28,525,Newham,0.05774600000000,51.51490300000000
318,1406257,21/00559/FOOD,Brunch - Unit 2,Restaurant/Cafe/Canteen,E16 2AU,AwaitingInspection,fhrs_awaitinginspection_en-GB,,525,Newham,0.01121730000000,51.51638490000000
319,849270,08/00332/FOOD,Brunsy Oyster And Seafood Bar,Mobile caterer,E6 5JP,3,fhrs_3_en-GB,2020-02-08,525,Newham,0.04036540000000,51.53049440000000
320,1431777,21/00782/FOOD,Bubble Station,Restaurant/Cafe/Canteen,E16 1EH,4,fhrs_4_en-GB,2021-12-06,525,Newham,0.05143500000000,51.53900600000000
321,1316190,20/00732/FOOD,Bubble Tea Bar,Restaurant/Cafe/Canteen,E6 3BP,3,fhrs_3_en-GB,2020-12-01,525,Newham,0.05614460000000,51.53351020000000
322,768214,14/01132/FOOD,Bubbleology UK-1 Ltd (Kiosk 32),Restaurant/Cafe/Canteen,E6 2JA,5,fhrs_5_en-GB,2019-07-12,525,Newham,-0.00805310000000,51.53680670000000
323,919492,16/00343/FOOD,Buhler Sortex,Other catering premises,E6 2JX,5,fhrs_5_en-GB,2019-08-05,525,Newham,0.04885200000000,51.51714400000000
324,1094181,18/00618/FOOD,Bun & Burger,Mobile caterer,E15 2JS,4,fhrs_4_en-GB,2019-05-25,525,Newham,0.03150420000000,51.54681750000000
325,1294198,20/00614/FOOD,Burger & Grill,Mobile caterer,E6 5XB,3,fhrs_3_en-GB,2021-05-24,525,Newham,0.01003900000000,51.54142200000000
326,1360509,21/00160/FOOD,Burger Base,Restaurant/Cafe/Canteen,E7 8BS,AwaitingInspection,fhrs_awaitinginspection_en-GB,,525,Newham,-0.00798009245256,51.54300594593050
327,1389156,21/00373/FOOD,Burger Inn,Takeaway/sandwich shop,E15 4ES,2,fhrs_2_en-GB,2021-10-05,525,Newham,0.02341000000000,51.53302600000000
328,1453338,22/00062/FOOD,Burger King,Restaurant/Cafe/Canteen,E13 0PB,AwaitingInspection,fhrs_awaitinginspection_en-GB,,525,Newham,0.05620700120926,51.51369857788090
329,1396770,21/00445/FOOD,Burgers N That Limited,Takeaway/sandwich shop,E6 5LW,4,fhrs_4_en-GB,2021-08-11,525,Newham,0.04169400000000,51.51113600000000
330,1403847,21/00512/FOOD,BurgoTown,Restaurant/Cafe/Canteen,E16 3ET,5,fhrs_5_en-GB,2022-02-15,525,Newham,0.01235500000000,51.52035800000000
331,1042964,18/00124/FOOD,Burj Chicken And Pizza,Takeaway/sandwich shop,E20 2AE,5,fhrs_5_en-GB,2020-02-26,525,Newham,0.02445660000000,51.54660670000000
332,640527,12/00018/FOOD,Busaba Eathai Ltd,Restaurant/Cafe/Canteen,E16 2RD,5,fhrs_5_en-GB,2020-02-22,525,Newham,0.01726200000000,51.55310500000000
333,640519,11/00607/FOOD,Busy Angels Nursery,Hospitals/Childcare/Caring Premises,E16 4LF,5,fhrs_5_en-GB,2021-04-19,525,Newham,0.01918115904395,51.50905087672420
334,640953,69030/0341/2/000,Buzz Bingo,Pub/bar/nightclub,E7 9HA,5,fhrs_5_en-GB,2020-02-15,525,Newham,0.00647800000000,51.54701400000000
335,1132132,19/00445/FOOD,Buzz Cafe - Starbucks,Restaurant/Cafe/Canteen,E7 9DU,5,fhrs_5_en-GB,2019-05-14,525,Newham,0.05315700000000,51.53433500000000
336,837089,15/00562/FOOD,C Breeze Jerk Restaurant,Restaurant/Cafe/Canteen,E15 1SE,5,fhrs_5_en-GB,2015-11-27,525,Newham,0.00049600000000,51.54117100000000
337,770142,14/00965/FOOD,C Is For Cake,Other catering premises,E6 1HS,5,fhrs_5_en-GB,2018-08-13,525,Newham,0.02657800000000,51.54818700000000
338,849343,74750/0111/0/000,C K Off Licence & Groceries,Retailers - other,E15 1XA,3,fhrs_3_en-GB,2020-02-22,525,Newham,0.01054199971259,51.53421020507810
339,640245,08/00083/FOOD,Cabalen Oriental Food,Other catering premises,E7 0QP,5,fhrs_5_en-GB,2020-01-06,525,Newham,0.02334620000000,51.54173380000000
340,1176368,19/00806/FOOD,Cabana,Restaurant/Cafe/Canteen,E15 3JJ,4,fhrs_4_en-GB,2019-09-06,525,Newham,0.00219760000000,51.54156630000000
341,654114,14/00296/FOOD,Cafe @ 48,Restaurant/Cafe/Canteen,E7 9PJ,3,fhrs_3_en-GB,2020-02-10,525,Newham,0.02577750000000,51.54517200000000
342,1471240,22/00631/FOOD,Cafe 21 London Ltd,Other catering premises,E15 1NG,AwaitingInspection,fhrs_awaitinginspection_en-GB,,525,Newham,0.05120810000000,51.53788610000000
343,1283367,20/00511/FOOD,Cafe 621,Restaurant/Cafe/Canteen,E7 9LN,4,fhrs_4_en-GB,2020-11-11,525,Newham,0.05143500000000,51.53900500000000
344,1107750,19/00226/FOOD,Cafe Bonnane,Restaurant/Cafe/Canteen,E6 1JB,1,fhrs_1_en-GB,2019-02-21,525,Newham,-0.00591500010341,51.53673934936520
345,1377043,21/00255/FOOD,Cafe Corner,Restaurant/Cafe/Canteen,E6 2JA,1,fhrs_1_en-GB,2021-05-18,525,Newham,0.00427800000000,51.54585500000000
346,640265,08/00351/FOOD,Cafe Olympic,Takeaway/sandwich shop,E15 2JQ,5,fhrs_5_en-GB,2020-10-08,525,Newham,0.00578000000000,51.54689000000000
347,992949,17/00406/FOOD,Cafe Pausa,Restaurant/Cafe/Canteen,E15 1PF,5,fhrs_5_en-GB,2020-02-15,525,Newham,0.03958300000000,51.52516600000000
348,1339307,21/00042/FOOD,Cafe Spice Namaste,Restaurant/Cafe/Canteen,E15 1JA,5,fhrs_5_en-GB,2022-02-03,525,Newham,0.00841600000000,51.54483100000000
349,1178834,19/00837/FOOD,Cafe Star,Restaurant/Cafe/Canteen,E13 9QF,2,fhrs_2_en-GB,2021-10-12,525,Newham,0.00841600000000,51.54483100000000
350,1286592,20/00542/FOOD,Cafes Hut,Restaurant/Cafe/Canteen,E15 4NH,1,fhrs_1_en-GB,2021-03-19,525,Newham,0.00841600000000,51.54483100000000
351,934059,16/00780/FOOD,Caffe Concerto,Restaurant/Cafe/Canteen,E15 4NH,5,fhrs_5_en-GB,2018-06-13,525,Newham,0.00841600000000,51.54483100000000
352,640479,11/00430/FOOD,Caffe Concerto,Restaurant/Cafe/Canteen,E15 4NH,5,fhrs_5_en-GB,2018-09-03,525,Newham,0.00841600000000,51.54483100000000
353,864073,12/00362/FOOD,Caffe Nero - Unit 1094 The Street,Takeaway/sandwich shop,E15 4NH,5,fhrs_5_en-GB,2018-12-11,525,Newham,0.00406200000000,51.53469800000000
354,768203,13/00791/FOOD,Caffe Nero Express North Kiosk,Takeaway/sandwich shop,E15 4NH,5,fhrs_5_en-GB,2013-05-21,525,Newham,0.00406200000000,51.53469800000000
355,641014,71160/0300/2/002,Caffe Van - Mobile,Mobile caterer,E15 3LS,3,fhrs_3_en-GB,2021-03-08,525,Newham,0.02502800000000,51.52106500000000
356,1379069,21/00313/FOOD,Cafiteria Ltd,Restaurant/Cafe/Canteen,E15 3LS,AwaitingInspection,fhrs_awaitinginspection_en-GB,,525,Newham,0.04922400000000,51.54597700000000
357,1396757,21/00426/FOOD,Cake And Custard Factory (Canning Town),Takeaway/sandwich shop,E13 8LW,5,fhrs_5_en-GB,2021-07-30,525,Newham,0.00152599997818,51.54187011718750
358,1333659,21/00030/FOOD,Cake Box Beckton,Mobile caterer,E12 6RH,5,fhrs_5_en-GB,2021-06-22,525,Newham,0.03229400000000,51.51105700000000
359,1176132,19/00799/FOOD,Cake Box Canning Town,Retailers - other,E15 1XQ,5,fhrs_5_en-GB,2020-01-14,525,Newham,0.04625900089741,51.52905273437500
360,1420024,21/00717/FOOD,Cake Inn,Retailers - other,E16 3DJ,5,fhrs_5_en-GB,2022-02-02,525,Newham,0.05602800000000,51.52701900000000
361,865849,16/00239/FOOD,Cake On Legs,Other catering premises,E6 3DL,5,fhrs_5_en-GB,2016-03-26,525,Newham,0.05602900000000,51.52701900000000
362,1076897,18/00364/FOOD,Cakes & Glitter,Other catering premises,E6 3RL,5,fhrs_5_en-GB,2019-03-16,525,Newham,0.04242300000000,51.52870500000000
363,640977,69050/0216/0/000,Cakes And Bakes,Retailers - other,E6 3RL,3,fhrs_3_en-GB,2020-12-01,525,Newham,0.04796600000000,51.50411200000000
364,640388,10/00459/FOOD,Cakes And Bakes,Retailers - other,E6 3DW,4,fhrs_4_en-GB,2020-11-28,525,Newham,0.03556640000000,51.54734950000000
365,1286578,20/00525/FOOD,Cakes And Craves,Restaurant/Cafe/Canteen,E16 2PX,3,fhrs_3_en-GB,2020-12-08,525,Newham,0.08033900000000,51.51697700000000
366,654111,14/00243/FOOD,Cakes By Kels,Other catering premises,E7 8DF,5,fhrs_5_en-GB,2017-01-04,525,Newham,0.02127200000000,51.53584300000000
367,817846,10/00505/FOOD,Cakes By Melanie Pye,Other catering premises,E6 7ER,5,fhrs_5_en-GB,2018-08-22,525,Newham,0.04877800000000,51.55144400000000
368,1296096,20/00632/FOOD,Cakes By Nasima,Other catering premises,E15 3QZ,5,fhrs_5_en-GB,2021-03-06,525,Newham,0.02588500000000,51.54296600000000
369,1156132,19/00645/FOOD,CakeTane,Other catering premises,E12 5AW,3,fhrs_3_en-GB,2020-09-02,525,Newham,0.03615900129080,51.53696060180660
370,640612,12/00439/FOOD,Calabash,Takeaway/sandwich shop,E7 9LW,5,fhrs_5_en-GB,2018-05-14,525,Newham,-0.01189000000000,51.54814400000000
371,1431802,21/00813/FOOD,"Cally Munchy Ltd - The Street, Westfield",Mobile caterer,E6 1AE,AwaitingInspection,fhrs_awaitinginspection_en-GB,,525,Newham,0.08487800000000,51.51473800000000
372,1076893,18/00357/FOOD,Caloroso Pizza,Restaurant/Cafe/Canteen,E20 1DY,5,fhrs_5_en-GB,2019-02-26,525,Newham,0.04956300000000,51.54386800000000
373,1231332,20/00126/FOOD,Caloroso Pizza (Beckton),Restaurant/Cafe/Canteen,E6 7FF,5,fhrs_5_en-GB,2020-03-09,525,Newham,0.03206100000000,51.51521500000000
374,640997,69990/2002/0/000,Calverton Primary School,School/college/university,E12 6PQ,5,fhrs_5_en-GB,2020-03-12,525,Newham,0.03637000173330,51.53295516967770
375,1431800,21/00811/FOOD,Camp Horizons Ltd - HAF Project,Other catering premises,E16 3JL,AwaitingInspection,fhrs_awaitinginspection_en-GB,,525,Newham,0.03242500000000,51.51820400000000
376,1431801,21/00812/FOOD,Camp Horizons Ltd - HAF Project,Other catering premises,E13 9DB,AwaitingInspection,fhrs_awaitinginspection_en-GB,,525,Newham,0.01660700000000,51.52264100000000
377,640617,12/00464/FOOD,Canaan Chinese Food Takeaway,Takeaway/sandwich shop,E13 8SD,3,fhrs_3_en-GB,2020-01-07,525,Newham,0.03260600000000,51.54329900000000
378,1107737,19/00201/FOOD,Candy Floss Crepeire,Restaurant/Cafe/Canteen,E13 8DW,5,fhrs_5_en-GB,2019-03-08,525,Newham,0.05112000000000,51.53809400000000
379,860718,08/00321/FOOD,Caner Supermarket,Retailers - other,E7 8JE,4,fhrs_4_en-GB,2018-10-12,525,Newham,0.02101500000000,51.54828400000000
380,962563,17/00240/FOOD,Canteenhouse Ltd - Mount Anvil Building Site 1 Seagull Lane,Other catering premises,E6 1JB,5,fhrs_5_en-GB,2018-09-04,525,Newham,0.02860000000000,51.55343200000000
381,1360512,21/00163/FOOD,Canton Chinese Takeaway,Takeaway/sandwich shop,E7 9AP,3,fhrs_3_en-GB,2021-01-16,525,Newham,0.00205700000000,51.52122600000000
382,805336,12/00294/FOOD,Card Factory,Retailers - other,E7 0JJ,Exempt,fhrs_exempt_en-GB,2019-06-29,525,Newham,0.04639800000000,51.53440000000000
383,805337,12/00296/FOOD,Card Factory,Retailers - other,E16 4SR,5,fhrs_5_en-GB,2018-11-07,525,Newham,0.03752300000000,51.54165800000000
384,830623,09/00264/FOOD,Caribbean Delights,Distributors/Transporters,E6 1EW,5,fhrs_5_en-GB,2019-03-25,525,Newham,0.02072500000000,51.52123000000000
385,1471235,22/00624/FOOD,Caribbean Grown Manje Ltd,Retailers - other,E7 8LT,AwaitingInspection,fhrs_awaitinginspection_en-GB,,525,Newham,0.01772520000000,51.50482590000000
386,1196460,19/00885/FOOD,Caribbean Skellion & Thyme Ltd,Retailers - other,E13 8HL,AwaitingInspection,fhrs_awaitinginspection_en-GB,,525,Newham,0.00756200000000,51.53624900000000
387,1451249,22/00041/FOOD,Caribbreak,Mobile caterer,E16 2AA,AwaitingInspection,fhrs_awaitinginspection_en-GB,,525,Newham,0.01256500000000,51.53363600000000
388,1398407,21/00470/FOOD,Carlos Farm Butchery,Retailers - other,E15 3HU,5,fhrs_5_en-GB,2022-02-14,525,Newham,0.01158150000000,51.51759290000000
389,1389138,21/00215/FOOD,Carmangerie,Retailers - other,E15 3ET,5,fhrs_5_en-GB,2021-08-13,525,Newham,0.05266400054097,51.53298568725590
390,1089925,18/00526/FOOD,Carmen Sanchez,Other catering premises,E16 4HQ,4,fhrs_4_en-GB,2018-11-26,525,Newham,0.06475700000000,51.50740500000000
391,919552,16/00508/FOOD,Carpathia,Retailers - other,E6 1LA,5,fhrs_5_en-GB,2019-07-12,525,Newham,0.01262300000000,51.53362600000000
392,640873,63250/2003/2/000,Carpenters Primary School,School/college/university,E16 2RD,5,fhrs_5_en-GB,2021-03-24,525,Newham,0.02502100000000,51.50889000000000
393,1151958,18/00897/FOOD,Cart And Horses,Pub/bar/nightclub,E15 1NG,5,fhrs_5_en-GB,2019-05-08,525,Newham,0.00190100000000,51.54165100000000
394,805320,05/00311/FOOD,Cartwrights Chemist (Surecare Health Link Ltd),Retailers - other,E15 3ET,Exempt,fhrs_exempt_en-GB,2018-08-29,525,Newham,0.01262600000000,51.51866200000000
395,1400018,21/00500/FOOD,Catch 22,Takeaway/sandwich shop,E16 1DR,4,fhrs_4_en-GB,2021-11-10,525,Newham,0.00038640000000,51.53972690000000
396,640799,14/00202/FOOD,Cater Trailer - Mobile Unit 1,Mobile caterer,E15 1NG,5,fhrs_5_en-GB,2019-02-16,525,Newham,0.04845200000000,51.54707900000000
397,640800,14/00203/FOOD,Cater Trailer - Mobile Unit 2,Mobile caterer,E16 4HP,5,fhrs_5_en-GB,2019-02-16,525,Newham,0.02710800000000,51.50817000000000
398,640801,14/00204/FOOD,Cater Trailer - Mobile Unit 3,Mobile caterer,E15 4QZ,5,fhrs_5_en-GB,2019-02-16,525,Newham,-0.00775099422222,51.53961302148470
399,640803,14/00206/FOOD,Cater Trailer - Mobile Unit 4,Mobile caterer,E12 6TJ,5,fhrs_5_en-GB,2019-02-16,525,Newham,0.00146800000000,51.54197300000000
400,640802,14/00205/FOOD,Cater Trailer - Mobile Unit 5,Mobile caterer,E16 1XL,5,fhrs_5_en-GB,2019-02-16,525,Newham,0.03299890000000,51.53957930000000
401,1006761,17/00550/FOOD,Catering Uno - DK14 AKO,Mobile caterer,E15 1XQ,5,fhrs_5_en-GB,2017-09-06,525,Newham,0.02710800000000,51.50817000000000
402,765306,15/00175/FOOD,Catering Uno - KM53 SJX,Mobile caterer,E7 8LJ,5,fhrs_5_en-GB,2017-09-06,525,Newham,0.05676600000000,51.54946900000000
403,897392,05/00299/FOOD,Caterlink At Kaizen Primary School,School/college/university,E16 1XL,5,fhrs_5_en-GB,2018-12-12,525,Newham,0.06026200000000,51.53393200000000
404,846585,07/00221/FOOD,Catto Chemists,Retailers - other,E12 6DG,Exempt,fhrs_exempt_en-GB,2019-03-28,525,Newham,0.03990200000000,51.54812700000000
405,830633,15/00584/FOOD,Central Cafe,Restaurant/Cafe/Canteen,E6 2LN,2,fhrs_2_en-GB,2020-09-30,525,Newham,0.00901000015438,51.54620742797850
406,799752,12/00529/FOOD,Central News,Retailers - other,E7 8AF,5,fhrs_5_en-GB,2018-07-30,525,Newham,0.02237900000000,51.54165000000000
407,997465,17/00490/FOOD,Central Park Day Care Nursery,Hospitals/Childcare/Caring Premises,E15 4NR,5,fhrs_5_en-GB,2017-09-13,525,Newham,0.02611300000000,51.51238700000000
408,1081959,18/00340/FOOD,Central Park Food & Wines Ltd,Retailers - other,E7 9NP,3,fhrs_3_en-GB,2018-10-02,525,Newham,0.04306300000000,51.53335200000000
409,1156163,19/00692/FOOD,Central Park International Mini Market,Retailers - other,E16 3NP,2,fhrs_2_en-GB,2019-06-16,525,Newham,0.01988999918103,51.52351760864260
410,641134,77580/2000/0/000,Central Park School,School/college/university,E6 1QP,5,fhrs_5_en-GB,2020-11-27,525,Newham,0.03615900129080,51.53696060180660
411,640438,11/00264/FOOD,Central Production Kitchen,Restaurant/Cafe/Canteen,E13 8BT,5,fhrs_5_en-GB,2018-12-19,525,Newham,0.05429080000000,51.55286810000000
412,1220608,19/00647/FOOD,Century Bar & Restaurant,Restaurant/Cafe/Canteen,E6 1AE,5,fhrs_5_en-GB,2020-02-22,525,Newham,0.05272400000000,51.53303000000000
413,1467776,22/00237/FOOD,Chaat Street,Mobile caterer,E12 6BU,AwaitingInspection,fhrs_awaitinginspection_en-GB,,525,Newham,0.05270000174642,51.53250885009770
414,1130156,19/00396/FOOD,Chadacre Court (Savills Catering Limited),Hospitals/Childcare/Caring Premises,E6 1LA,5,fhrs_5_en-GB,2020-01-07,525,Newham,0.03582330000000,51.53630180000000
415,1354379,21/00131/FOOD,Chai Naan,Restaurant/Cafe/Canteen,E6 3BA,4,fhrs_4_en-GB,2021-12-13,525,Newham,0.02966930000000,51.52567120000000
416,987133,17/00400/FOOD,Chai Nashta,Restaurant/Cafe/Canteen,E6 1ED,5,fhrs_5_en-GB,2021-06-28,525,Newham,0.03397060000000,51.53420270000000
417,1029999,18/00057/FOOD,Chaiiwala,Restaurant/Cafe/Canteen,E13 8RH,5,fhrs_5_en-GB,2020-02-22,525,Newham,0.05177700000000,51.53442300000000
418,1411054,21/00633/FOOD,Change Please At Timber Lodge,Restaurant/Cafe/Canteen,E13 9BA,AwaitingInspection,fhrs_awaitinginspection_en-GB,,525,Newham,0.00158799998462,51.54830932617190
419,640377,10/00364/FOOD,Chans Bros Ltd Staff Canteen,Restaurant/Cafe/Canteen,E6 1HY,2,fhrs_2_en-GB,2016-03-22,525,Newham,-0.00635900000000,51.54434500000000
420,640963,69040/0321/0/000,Chans Restaurant,Restaurant/Cafe/Canteen,E15 1JY,4,fhrs_4_en-GB,2020-02-04,525,Newham,-0.00499600000000,51.53791000000000
421,919700,74180/0357/0/000,Chapharm Ltd (Chemist),Retailers - other,E20 1GL,Exempt,fhrs_exempt_en-GB,2020-03-05,525,Newham,0.04364200000000,51.50087700000000
422,1026809,18/00020/FOOD,Charcoal Grill And Chill,Takeaway/sandwich shop,E15 2JL,3,fhrs_3_en-GB,2019-10-17,525,Newham,0.00078399997437,51.55037689208980
423,1002181,17/00415/FOOD,Charcoal Restaurant,Restaurant/Cafe/Canteen,E16 2HB,5,fhrs_5_en-GB,2017-11-09,525,Newham,-0.00001100000000,51.54801400000000
424,782847,13/00470/FOOD,Chargeable Community Centre,Restaurant/Cafe/Canteen,E15 1TT,5,fhrs_5_en-GB,2021-02-10,525,Newham,-0.00676460000000,51.54343580000000
425,705165,68150/0157/0/000,Cheap Store,Retailers - other,E15 1JT,5,fhrs_5_en-GB,2017-10-13,525,Newham,0.02512200000000,51.54984000000000
426,813703,15/00535/FOOD,Chennai Dosa,Restaurant/Cafe/Canteen,E20 1ES,2,fhrs_2_en-GB,2020-01-07,525,Newham,0.02479350000000,51.55029690000000
427,640184,05/00242/FOOD,Chestnut Nursery Ltd,Hospitals/Childcare/Caring Premises,E7 0EN,4,fhrs_4_en-GB,2021-04-16,525,Newham,0.04479900000000,51.51674800000000
428,640878,63760/0124/0/000,Chestnut Nursery School (Food Use),Hospitals/Childcare/Caring Premises,E7 0EP,5,fhrs_5_en-GB,2020-02-27,525,Newham,0.08033900000000,51.51697700000000
429,1377040,21/00250/FOOD,Chez Estou & Yoyo,Restaurant/Cafe/Canteen,E6 5UX,4,fhrs_4_en-GB,2021-07-28,525,Newham,0.00927940000000,51.51604960000000
430,640347,10/00158/FOOD,Chic & Grill Joint,Takeaway/sandwich shop,E6 7ER,3,fhrs_3_en-GB,2020-01-09,525,Newham,0.07231800000000,51.50877900000000
431,765281,14/01159/FOOD,Chicago 30,Takeaway/sandwich shop,E16 1EQ,5,fhrs_5_en-GB,2019-02-19,525,Newham,0.01090700000000,51.55065100000000
432,640283,09/00029/FOOD,Chicken City,Takeaway/sandwich shop,E16 2UD,3,fhrs_3_en-GB,2020-01-08,525,Newham,0.02420900000000,51.52275200000000
433,1420013,21/00702/FOOD,Chicken N That,Takeaway/sandwich shop,E15 1SN,3,fhrs_3_en-GB,2022-02-03,525,Newham,0.04518170000000,51.54989920000000
434,1197649,19/00906/FOOD,Chicken Spot,Takeaway/sandwich shop,E13 8HJ,AwaitingInspection,fhrs_awaitinginspection_en-GB,,525,Newham,-0.00635900022462,51.54434585571290
435,776183,73960/0105/0/000,Chicken Village,Takeaway/sandwich shop,E12 5AD,5,fhrs_5_en-GB,2017-07-18,525,Newham,0.05367200000000,51.53423600000000
436,1396740,21/00402/FOOD,Chick'os Flake Grill Chicken,Takeaway/sandwich shop,E20 1EQ,4,fhrs_4_en-GB,2021-07-15,525,Newham,0.04800600000000,51.50373300000000
437,1204833,19/00986/FOOD,Chicos Flame Grilled Chicken,Restaurant/Cafe/Canteen,E6 2HJ,3,fhrs_3_en-GB,2020-03-10,525,Newham,0.07722300291061,51.51216888427730
438,904781,16/00478/FOOD,Children Garden Kindergarten,Hospitals/Childcare/Caring Premises,E16 2PX,5,fhrs_5_en-GB,2018-12-17,525,Newham,0.00067100000000,51.54187000000000
439,1092361,18/00575/FOOD,Chimney Cake Paradise,Mobile caterer,E6 7FB,5,fhrs_5_en-GB,2018-11-08,525,Newham,0.02710800000000,51.50817000000000
440,641041,73960/0157/0/000,China Express,Takeaway/sandwich shop,E15 1XQ,5,fhrs_5_en-GB,2017-08-10,525,Newham,0.02710800000000,51.50817000000000
441,718157,14/00823/FOOD,China Palace,Restaurant/Cafe/Canteen,E16 1XL,4,fhrs_4_en-GB,2020-11-18,525,Newham,0.07065670000000,51.52113240000000
442,919613,16/00652/FOOD,Chinese Cuisine,Mobile caterer,E16 1XL,5,fhrs_5_en-GB,2017-05-24,525,Newham,0.01453899964690,51.54442977905270
443,837075,15/00490/FOOD,Chinese Health Centre / Kei Holistic Centre,Retailers - other,E6 6LG,5,fhrs_5_en-GB,2018-11-01,525,Newham,-0.00635900000000,51.54434500000000
444,845343,16/00051/FOOD,Chinese Overseas Restaurant,Restaurant/Cafe/Canteen,E15 4JF,AwaitingInspection,fhrs_awaitinginspection_en-GB,2020-02-24,525,Newham,0.08033899962902,51.51697540283200
445,1107746,19/00217/FOOD,Chippers Cakes,Other catering premises,E16 4HA,5,fhrs_5_en-GB,2019-03-26,525,Newham,0.06475700000000,51.50740500000000
446,640211,069040/0457/0/000,Chippy Fish Bar,Takeaway/sandwich shop,E20 1EH,4,fhrs_4_en-GB,2019-11-20,525,Newham,0.00980900000000,51.54339500000000
447,960244,17/00213/FOOD,Chopd - Unit S7,Restaurant/Cafe/Canteen,E6 7ER,5,fhrs_5_en-GB,2020-01-27,525,Newham,0.05082000000000,51.55202960000000
448,1067408,18/00304/FOOD,Chopstix - Food Court,Takeaway/sandwich shop,E16 2RD,5,fhrs_5_en-GB,2018-11-08,525,Newham,0.02402900000000,51.54178400000000
449,765297,15/00086/FOOD,Chopstix Noodle Bar,Takeaway/sandwich shop,E15 4LZ,5,fhrs_5_en-GB,2020-02-08,525,Newham,0.02187800000000,51.53000400000000
450,1214469,19/01119/FOOD,Chotpotiwala,Restaurant/Cafe/Canteen,E12 5AN,0,fhrs_0_en-GB,2021-10-19,525,Newham,0.02077200000000,51.53304500000000
451,641012,70945/0011/3/BOU,Chozen Noodle,Takeaway/sandwich shop,E7 9PJ,5,fhrs_5_en-GB,2018-11-15,525,Newham,0.03100200000000,51.52736500000000
452,919653,63830/0175/0/000,Church Road Post Office,Retailers - other,E13 0AJ,Exempt,fhrs_exempt_en-GB,2018-12-07,525,Newham,0.06291910000000,51.50124180000000
453,1028281,18/00044/FOOD,Chutney Indian Takeaway,Takeaway/sandwich shop,E13 0NF,3,fhrs_3_en-GB,2019-10-01,525,Newham,0.05746600000000,51.52468200000000
454,1079208,18/00415/FOOD,Cing UK,Mobile caterer,E13 9EZ,5,fhrs_5_en-GB,2019-05-18,525,Newham,0.05367200000000,51.53423600000000
455,1438948,22/00015/FOOD,City Bakery,Other catering premises,E16 2LJ,AwaitingInspection,fhrs_awaitinginspection_en-GB,,525,Newham,0.02818100000000,51.51807000000000
456,869967,74760/0510/0/000,City Sweet Centre,Retailers - other,E6 3PD,5,fhrs_5_en-GB,2018-07-26,525,Newham,0.04320910000000,51.50352030000000
457,979275,17/00299/FOOD,Cjhascare Ltd,Other catering premises,E6 2HJ,4,fhrs_4_en-GB,2017-07-06,525,Newham,0.03195800000000,51.54399400000000
458,813715,78210/2005/2/000,Clapton Football Club,Restaurant/Cafe/Canteen,E13 8ND,3,fhrs_3_en-GB,2019-03-04,525,Newham,0.02403000000000,51.54178400000000
459,919350,04/00003/COMM,Classik Caterings,Other catering premises,E16 2AE,3,fhrs_3_en-GB,2020-07-14,525,Newham,0.03787750000000,51.54129310000000
460,680556,06/00252/FOOD,Clever Cloggs Nursery,Hospitals/Childcare/Caring Premises,E7 8JG,5,fhrs_5_en-GB,2019-03-14,525,Newham,0.07051560000000,51.52069450000000
461,1207799,19/01050/FOOD,Cleves Primary School,School/college/university,E7 9PJ,5,fhrs_5_en-GB,2020-02-11,525,Newham,0.00146900000982,51.54197311401370
462,1193617,19/00843/FOOD,Club Coffee Ltd,Mobile caterer,E16 2AU,5,fhrs_5_en-GB,2020-02-22,525,Newham,0.03064890000000,51.49964940000000
463,1061934,18/00270/FOOD,Coccinelle Day Nursery,Hospitals/Childcare/Caring Premises,E7 8LT,5,fhrs_5_en-GB,2020-07-21,525,Newham,0.04671000000000,51.54907900000000
464,1047543,18/00151/FOOD,Cocoa Bean Cafe,Restaurant/Cafe/Canteen,E6 6LG,4,fhrs_4_en-GB,2021-03-06,525,Newham,-0.00634700013325,51.54433441162110
465,928298,16/00417/FOOD,Cocoa Bocoa,Other catering premises,E15 1XQ,4,fhrs_4_en-GB,2019-11-12,525,Newham,0.07989800000000,51.52564500000000
466,640647,12/00703/FOOD,Coffee & Cream,Restaurant/Cafe/Canteen,E16 2PN,5,fhrs_5_en-GB,2022-02-03,525,Newham,0.03637500000000,51.53728900000000
467,1042952,18/00103/FOOD,Coffee Express,Restaurant/Cafe/Canteen,E12 6AB,3,fhrs_3_en-GB,2020-09-11,525,Newham,0.04631000000000,51.50222500000000
468,1294171,20/00583/FOOD,Coffee Hut Ltd,Restaurant/Cafe/Canteen,E20 1EH,1,fhrs_1_en-GB,2020-10-12,525,Newham,0.06352200000000,51.50112300000000
469,1261764,20/00295/FOOD,Coffee Moon,Restaurant/Cafe/Canteen,IG11 0AD,3,fhrs_3_en-GB,2020-10-22,525,Newham,0.01506600000000,51.50830500000000
470,1420023,21/00716/FOOD,Coffee Palace,Restaurant/Cafe/Canteen,E6 1AD,1,fhrs_1_en-GB,2022-02-02,525,Newham,0.02588400000000,51.54296600000000
471,1411018,21/00581/FOOD,Coffee SM Ltd,Restaurant/Cafe/Canteen,E16 2DW,3,fhrs_3_en-GB,2021-10-28,525,Newham,0.05071300000000,51.53963000000000
472,640734,13/00941/FOOD,Coffera Ltd,Restaurant/Cafe/Canteen,E16 2LL,5,fhrs_5_en-GB,2018-05-22,525,Newham,0.01998800000000,51.55016300000000
473,785597,68870/2000/2/000,Colegrave Primary School,School/college/university,E16 1AD,5,fhrs_5_en-GB,2020-03-06,525,Newham,0.02540000000000,51.55089600000000
474,919624,16/00672/FOOD,Colicci,Restaurant/Cafe/Canteen,E7 9LW,5,fhrs_5_en-GB,2018-09-03,525,Newham,0.02589500000000,51.54359620000000
475,782133,13/00969/FOOD,Collins Newsagents Ta Mapsons Ltd  (previously Londis),Retailers - other,E6 1JG,5,fhrs_5_en-GB,2018-08-06,525,Newham,0.01823200000000,51.51571500000000
476,1403854,21/00522/FOOD,Comewell Foods Ltd,Mobile caterer,E7 9DW,AwaitingInspection,fhrs_awaitinginspection_en-GB,,525,Newham,0.02084800042212,51.53023910522460
477,830619,09/00016/FOOD,Community Food Enterprise Ltd -fruit & Veg - Juice Bar,Other catering premises,E13 8SJ,5,fhrs_5_en-GB,2019-03-31,525,Newham,0.01362320000000,51.51192810000000
478,1061932,18/00268/FOOD,Community Links Academy Trust T/A Education Links,School/college/university,E6 1AD,5,fhrs_5_en-GB,2019-02-27,525,Newham,0.02815900000000,51.51010300000000
479,864122,64310/1000/0/000,Community Road Tenants And Residents Social Club,Pub/bar/nightclub,E7 0EW,3,fhrs_3_en-GB,2018-02-06,525,Newham,0.02811200000000,51.53727100000000
480,1193628,19/00858/FOOD,Compere Louis,Mobile caterer,E7 9LW,5,fhrs_5_en-GB,2020-02-09,525,Newham,0.00737800000000,51.54819540000000
481,640536,12/00039/FOOD,Comptoir Libanais,Takeaway/sandwich shop,E16 1QB,5,fhrs_5_en-GB,2018-12-11,525,Newham,0.06465700000000,51.51379200000000
482,1339315,21/00056/FOOD,Connie & Sons African Shop,Retailers - other,E13 0AG,AwaitingInspection,fhrs_awaitinginspection_en-GB,,525,Newham,0.05315700000000,51.53433500000000
483,1339305,20/00736/FOOD,Connies Special Authentic Ghanaian,Restaurant/Cafe/Canteen,E16 1HN,AwaitingInspection,fhrs_awaitinginspection_en-GB,,525,Newham,0.05655999854207,51.52696609497070
484,641153,77830/0109/0/000,Convenience Store,Retailers - other,E16 3BY,5,fhrs_5_en-GB,2020-02-13,525,Newham,-0.00144700000000,51.53698700000000
485,640241,08/00075/FOOD,Cookie Island,Restaurant/Cafe/Canteen,E13 0RQ,3,fhrs_3_en-GB,2020-02-12,525,Newham,0.06182600000000,51.54907500000000
486,640416,11/00153/FOOD,Co-Op,Retailers - supermarkets/hypermarkets,E15 1HF,5,fhrs_5_en-GB,2019-10-18,525,Newham,0.02627900000000,51.54501000000000
487,1453339,22/00063/FOOD,Co-Op,Retailers - supermarkets/hypermarkets,E6 6ZB,AwaitingInspection,fhrs_awaitinginspection_en-GB,,525,Newham,0.03452900000000,51.53663800000000
488,919599,16/00609/FOOD,Corner News,Retailers - other,E6 1HS,4,fhrs_4_en-GB,2018-01-24,525,Newham,0.01220400000000,51.51791400000000
489,919423,13/00538/FOOD,Cornerstone - Charity Cafe,Restaurant/Cafe/Canteen,E6 3PA,5,fhrs_5_en-GB,2019-06-06,525,Newham,0.02537700000000,51.53736300000000
490,1379049,21/00289/FOOD,Cosmic Energy,Retailers - other,E15 2SN,5,fhrs_5_en-GB,2021-09-22,525,Newham,-0.00044100000000,51.54183500000000
491,830630,12/00111/FOOD,Costa Coffee,Other catering premises,E12 6HL,5,fhrs_5_en-GB,2018-11-08,525,Newham,0.02400300092995,51.55289077758790
492,845313,14/00067/COMM,Costa Coffee,Restaurant/Cafe/Canteen,E7 9PA,4,fhrs_4_en-GB,2021-12-06,525,Newham,0.01777400000000,51.52035400000000
493,817845,10/00332/FOOD,Costa Coffee,Other catering premises,E13 9AP,5,fhrs_5_en-GB,2015-10-27,525,Newham,0.03351080000000,51.53423770000000
494,813684,10/00483/FOOD,Costa Coffee,Restaurant/Cafe/Canteen,E16 4HQ,5,fhrs_5_en-GB,2018-10-12,525,Newham,-0.00012740000000,51.54182190000000
495,640607,12/00387/FOOD,Costa Coffee,Restaurant/Cafe/Canteen,E13 0QA,5,fhrs_5_en-GB,2017-10-12,525,Newham,-0.00021600000000,51.53907000000000
496,1089923,18/00523/FOOD,Costa Coffee (East),Restaurant/Cafe/Canteen,E15 1XE,5,fhrs_5_en-GB,2018-11-15,525,Newham,-0.01065090000000,51.54771540000000
497,1092359,18/00569/FOOD,Costa Coffee (West),Restaurant/Cafe/Canteen,E7 0DS,5,fhrs_5_en-GB,2018-11-22,525,Newham,0.02574600000000,51.54503600000000
498,864098,16/00223/FOOD,Costa Coffee Drive Thru,Restaurant/Cafe/Canteen,E13 8EQ,3,fhrs_3_en-GB,2019-03-14,525,Newham,0.06352200000000,51.50112300000000
499,919499,16/00377/FOOD,Costa Compass Group UK & Ireland,Restaurant/Cafe/Canteen,E13 9BA,5,fhrs_5_en-GB,2019-07-05,525,Newham,0.05640600000000,51.51555500000000
500,987104,17/00358/FOOD,Costa Limited,Restaurant/Cafe/Canteen,E15 1XE,5,fhrs_5_en-GB,2020-02-23,525,Newham,0.02468290000000,51.52960640000000
501,771889,13/01258/FOOD,Costa Ltd,Restaurant/Cafe/Canteen,E15 4QZ,5,fhrs_5_en-GB,2018-11-01,525,Newham,0.05079450000000,51.54151740000000
502,1006740,17/00524/FOOD,Costa Ltd,Restaurant/Cafe/Canteen,E20 1FS,5,fhrs_5_en-GB,2017-11-29,525,Newham,0.04032600000000,51.53050400000000
503,1132125,19/00435/FOOD,Costa Outlet,Restaurant/Cafe/Canteen,E7 9LN,5,fhrs_5_en-GB,2019-05-10,525,Newham,0.01342200000000,51.51774900000000
504,1132131,19/00443/FOOD,Costa Outlet,Restaurant/Cafe/Canteen,E16 2LL,5,fhrs_5_en-GB,2019-05-14,525,Newham,0.00406200000000,51.53469800000000
505,1031408,18/00075/FOOD,Costadana,Retailers - other,E6 5JS,1,fhrs_1_en-GB,2020-03-07,525,Newham,0.06031240000000,51.55524460000000
506,922324,16/00689/FOOD,Costcutter,Retailers - other,E13 9HH,4,fhrs_4_en-GB,2019-01-17,525,Newham,-0.01806600019336,51.53879928588870
507,849330,69020/0002/0/000,Costcutter,Retailers - other,E12 6SB,3,fhrs_3_en-GB,2020-02-08,525,Newham,0.04593560000000,51.50230370000000
508,919510,16/00402/FOOD,Costcutter,Retailers - other,E6 3BP,5,fhrs_5_en-GB,2018-11-29,525,Newham,0.04956200000000,51.54386700000000
509,919635,61130/0555/0/000,Costcutter,Retailers - other,E16 1EW,4,fhrs_4_en-GB,2020-03-05,525,Newham,0.03537800000000,51.52301700000000
510,696066,13/01156/FOOD,Costcutter - Nisa,Retailers - other,E15 3LS,4,fhrs_4_en-GB,2018-06-22,525,Newham,0.00487830000000,51.53890380000000
511,837098,69060/0219/0/000,Costcutters,Retailers - other,E12 5JR,4,fhrs_4_en-GB,2019-07-18,525,Newham,0.02072500000000,51.52123000000000
512,640578,12/00245/FOOD,Costsaver,Retailers - other,E20 2ST,5,fhrs_5_en-GB,2019-11-27,525,Newham,0.01917990000000,51.52094310000000
513,852738,11/00087/FOOD,Cosy Cafe,Restaurant/Cafe/Canteen,E16 2DW,3,fhrs_3_en-GB,2021-02-26,525,Newham,0.05272300000000,51.53303000000000
514,1455087,22/00087/FOOD,Courtyard By Marriott - London City Airport,Hotel/bed & breakfast/guest house,E12 6PQ,AwaitingInspection,fhrs_awaitinginspection_en-GB,,525,Newham,0.06322130000000,51.50984270000000
515,805358,68150/0070/0/000,Crailmay Ltd (Chemist),Retailers - other,E13 8SL,5,fhrs_5_en-GB,2018-08-02,525,Newham,0.00078399997437,51.55037689208980
516,1472172,22/00643/FOOD,Crave Joint,Restaurant/Cafe/Canteen,E15 4PH,AwaitingInspection,fhrs_awaitinginspection_en-GB,,525,Newham,0.06169499829412,51.55067825317380
517,1467778,22/00289/FOOD,Crave Point Ltd,Other catering premises,E13 8HL,5,fhrs_5_en-GB,2022-03-01,525,Newham,0.04677200000000,51.53471600000000
518,1350112,21/00100/FOOD,CravingsUK,Other catering premises,E13 8EQ,5,fhrs_5_en-GB,2021-02-20,525,Newham,0.01090000000000,51.54065200000000
519,1453333,22/00056/FOOD,Crazy Grill,Restaurant/Cafe/Canteen,E6 1LA,AwaitingInspection,fhrs_awaitinginspection_en-GB,,525,Newham,0.01239200000000,51.51159090000000
520,1031401,18/00037/FOOD,Creams,Restaurant/Cafe/Canteen,E6 5NG,5,fhrs_5_en-GB,2018-09-28,525,Newham,-0.00634700013325,51.54433441162110
521,1047533,18/00106/FOOD,Creams Cafe,Restaurant/Cafe/Canteen,E15 1TT,5,fhrs_5_en-GB,2018-08-06,525,Newham,-0.01299200020730,51.53845977783200
522,1420020,21/00709/FOOD,Creams Royal Wharf,Restaurant/Cafe/Canteen,E12 5QJ,AwaitingInspection,fhrs_awaitinginspection_en-GB,,525,Newham,0.05158210000000,51.53241200000000
523,680557,12/00383/FOOD,Creole Cuisine,Mobile caterer,E6 1EN,3,fhrs_3_en-GB,2012-07-17,525,Newham,0.02934570000000,51.54660310000000
524,640452,11/00358/FOOD,Crepeaffaire,Restaurant/Cafe/Canteen,E15 4HG,5,fhrs_5_en-GB,2020-07-08,525,Newham,-0.21756298817150,51.58693604422830
525,1156152,19/00677/FOOD,CrisCos Bakery Ltd,Other catering premises,E16 1ZB,3,fhrs_3_en-GB,2019-10-29,525,Newham,0.05126200000000,51.55185000000000
526,1130119,19/00233/FOOD,Crisdid Oltenia Limited,Retailers - other,E20 1EN,4,fhrs_4_en-GB,2020-12-12,525,Newham,0.05761970000000,51.53936560000000
527,830635,60290/0010/0/000,Cromwell Stores,Retailers - other,E20 2AD,4,fhrs_4_en-GB,2019-04-23,525,Newham,0.04994600000000,51.54405900000000
528,864062,11/00302/FOOD,Cromwell Stores Off Licence,Retailers - other,E6 3BA,4,fhrs_4_en-GB,2017-08-16,525,Newham,0.02471200000000,51.52954200000000
529,1079204,18/00409/FOOD,Crown Of Love Chips,Other catering premises,E7 8BS,4,fhrs_4_en-GB,2019-03-26,525,Newham,0.05143500000000,51.53900600000000
530,852732,08/00359/FOOD,Crowne Plaza Hotel / Docklands Grill And Bar,Other catering premises,E15 1TH,5,fhrs_5_en-GB,2019-05-13,525,Newham,0.05270000000000,51.53250900000000
531,1379062,21/00303/FOOD,Crunchys,Restaurant/Cafe/Canteen,E12 5AJ,1,fhrs_1_en-GB,2022-01-19,525,Newham,0.03453000000000,51.53663800000000
532,1471220,22/00134/FOOD,Cucurigu Magazin Romanesc,Retailers - other,E6 2BL,5,fhrs_5_en-GB,2022-02-16,525,Newham,0.02508720000000,51.54619110000000
533,640341,10/00119/FOOD,Cuisine Supreme Limited,Other catering premises,E15 2QZ,5,fhrs_5_en-GB,2020-03-10,525,Newham,0.05680099874735,51.50740814208980
534,1083386,18/00468/FOOD,Cumberland School,School/college/university,E12 6PH,5,fhrs_5_en-GB,2019-02-26,525,Newham,0.04729099944234,51.50771331787110
535,1451244,22/00035/FOOD,CUPP Bubble Tea - Green Street,Restaurant/Cafe/Canteen,E13 9HH,AwaitingInspection,fhrs_awaitinginspection_en-GB,,525,Newham,-0.00671310000000,51.54344320000000
536,1076901,18/00369/FOOD,Cups & Jars Limited,Restaurant/Cafe/Canteen,E6 2JA,5,fhrs_5_en-GB,2018-10-06,525,Newham,0.00390500000000,51.51898200000000
537,1252981,20/00233/FOOD,Curry In A Box,Restaurant/Cafe/Canteen,E6 3BA,5,fhrs_5_en-GB,2021-06-28,525,Newham,0.05489530000000,51.55347810000000
538,865838,14/00390/COMM,Curry King,Takeaway/sandwich shop,E13 9AP,3,fhrs_3_en-GB,2021-02-27,525,Newham,0.04475600000000,51.53123500000000
539,897406,60960/2000/0/000,Curwen Primary School  School Dinners,School/college/university,E7 9HD,5,fhrs_5_en-GB,2019-01-14,525,Newham,0.01121730000000,51.51638490000000
540,1339308,21/00044/FOOD,Custom House & Canning Town Community Renewal Project,Other catering premises,E16 2TY,AwaitingInspection,fhrs_awaitinginspection_en-GB,,525,Newham,0.00634900000000,51.54211500000000
541,852762,16/00161/FOOD,Custom House Pub,Pub/bar/nightclub,E16 2QU,4,fhrs_4_en-GB,2019-02-25,525,Newham,0.07059590000000,51.52094760000000
542,1105612,18/00895/FOOD,Cut Price Store,Retailers - other,E16 4SA,5,fhrs_5_en-GB,2019-02-27,525,Newham,0.04399000000000,51.53506200000000
543,1420007,21/00696/FOOD,Cutie Pies Nursery Limited,Hospitals/Childcare/Caring Premises,E12 5JY,5,fhrs_5_en-GB,2022-02-17,525,Newham,0.04399000000000,51.53506200000000
544,849348,78035/0023/0/000,Cygnet Hospital,Other catering premises,E6 3BD,5,fhrs_5_en-GB,2020-02-17,525,Newham,0.03120799921453,51.53944778442380
545,746056,14/00221/FOOD,D & D Patisserie,Retailers - other,E16 1EH,5,fhrs_5_en-GB,2019-01-08,525,Newham,0.03840300000000,51.50747000000000
546,979286,17/00313/FOOD,D & D Patisserie Ltd,Retailers - other,E15 4BZ,5,fhrs_5_en-GB,2020-02-21,525,Newham,-0.00613200000000,51.54820800000000
547,1296101,20/00637/FOOD,D Fusion,Restaurant/Cafe/Canteen,E6 6LG,4,fhrs_4_en-GB,2020-12-11,525,Newham,-0.00635900022462,51.54434585571290
548,1398412,21/00475/FOOD,D Grillos,Restaurant/Cafe/Canteen,E6 1HB,4,fhrs_4_en-GB,2021-08-23,525,Newham,0.04800600000000,51.50373300000000
549,960218,17/00014/FOOD,D I Wine,Other catering premises,E6 1HB,4,fhrs_4_en-GB,2017-04-26,525,Newham,0.06328160000000,51.53414030000000
550,1266737,20/00333/FOOD,Daddi Cool,Mobile caterer,E7 8LE,4,fhrs_4_en-GB,2020-12-08,525,Newham,0.01171800000000,51.54547500000000
551,1398406,21/00469/FOOD,Daily Fresh,Retailers - other,E16 1RH,3,fhrs_3_en-GB,2021-11-29,525,Newham,0.04715500026941,51.50275039672850
552,1396720,21/00328/FOOD,Daily Fresh Naan,Takeaway/sandwich shop,E20 1AS,1,fhrs_1_en-GB,2021-07-13,525,Newham,0.08033900000000,51.51697700000000
553,765241,14/00291/FOOD,Dallas Chicken & Ribs,Takeaway/sandwich shop,E20 1GL,3,fhrs_3_en-GB,2021-10-22,525,Newham,0.03651100000000,51.51706200000000
554,1281539,20/00479/FOOD,Damac Burgers & Shakes/Urban Cream,Takeaway/sandwich shop,E16 2PX,3,fhrs_3_en-GB,2021-12-06,525,Newham,0.02126900000000,51.52153590000000
555,1350116,21/00105/FOOD,Damac Burgers And Shakes,Takeaway/sandwich shop,E6 2LW,5,fhrs_5_en-GB,2021-06-02,525,Newham,0.04956200000000,51.54386700000000
556,1028274,18/00025/FOOD,Dames Food And Wine,Retailers - other,E15 4JW,4,fhrs_4_en-GB,2018-01-22,525,Newham,0.04639700000000,51.53439900000000
557,849289,13/01388/FOOD,Damla Supermarket,Retailers - other,E16 2DP,5,fhrs_5_en-GB,2020-02-28,525,Newham,0.05027630000000,51.54282150000000
558,1178830,19/00833/FOOD,DaniellaCooks,Other catering premises,E6 7ER,4,fhrs_4_en-GB,2020-02-08,525,Newham,0.05265600000000,51.55267100000000
559,849340,74230/4001/0/000,Danny & Eileens,Retailers - other,E16 3LB,5,fhrs_5_en-GB,2019-01-08,525,Newham,0.05492900000000,51.55350400000000
560,1356829,21/00136/FOOD,Danube Kebab Point,Takeaway/sandwich shop,E13 8HL,5,fhrs_5_en-GB,2021-06-07,525,Newham,0.02102800000000,51.52189000000000
561,640610,12/00412/FOOD,Dar Marrakech,Restaurant/Cafe/Canteen,E12 6PQ,4,fhrs_4_en-GB,2020-01-09,525,Newham,0.02051400000000,51.53110700000000
562,979259,17/00022/COMM,Darkhorse Restaurant & Bar,Restaurant/Cafe/Canteen,E6 1EW,5,fhrs_5_en-GB,2018-10-22,525,Newham,0.02710800000000,51.50817000000000
563,1451243,22/00034/FOOD,Darul Atfaal,Other catering premises,E12 6SA,AwaitingInspection,fhrs_awaitinginspection_en-GB,,525,Newham,0.02710800000000,51.50817000000000
564,771887,13/01246/FOOD,Davina Supermarket,Retailers - other,E12 6EA,4,fhrs_4_en-GB,2016-09-15,525,Newham,-0.01235799957067,51.54374313354490
565,846605,79490/1005/0/000,Day Lewis Pharmacy,Retailers - other,E12 5JY,5,fhrs_5_en-GB,2018-11-19,525,Newham,0.02627800000000,51.54500900000000
566,805386,77840/0220/0/000,Day Lewis Pharmacy,Retailers - other,E13 8EE,5,fhrs_5_en-GB,2018-07-27,525,Newham,0.01647900000000,51.54713900000000
567,1080825,18/00432/FOOD,Daystar Pharmacy,Retailers - other,E13 0AD,Exempt,fhrs_exempt_en-GB,2019-01-03,525,Newham,0.04065500000000,51.54656700000000
568,1151963,19/00572/FOOD,DDK Dutch Doner Kebab,Restaurant/Cafe/Canteen,E16 1XL,4,fhrs_4_en-GB,2020-03-20,525,Newham,0.03243670000000,51.52177430000000
569,640222,07/00184/FOOD,De Cafe Lounge,Restaurant/Cafe/Canteen,E16 1XL,5,fhrs_5_en-GB,2020-02-01,525,Newham,0.04325800000000,51.54093800000000
570,1130130,19/00353/FOOD,DE5S,Takeaway/sandwich shop,E20 1HZ,1,fhrs_1_en-GB,2020-01-16,525,Newham,0.05576400000000,51.53138500000000
571,785555,09/00030/FOOD,Deano's At Meridian Square,Mobile caterer,E7 9PA,3,fhrs_3_en-GB,2021-02-27,525,Newham,0.05765520000000,51.52288120000000
572,1006774,17/00575/FOOD,Dees Table,Mobile caterer,E7 9AW,4,fhrs_4_en-GB,2017-10-23,525,Newham,0.05740280000000,51.52591620000000
573,1130162,19/00402/FOOD,Defne Pizza & Kebab,Takeaway/sandwich shop,E7 8AL,4,fhrs_4_en-GB,2019-06-07,525,Newham,0.00814600000000,51.52854100000000
574,1018811,17/00277/FOOD,Delaware North,Other catering premises,E13 8RX,5,fhrs_5_en-GB,2017-07-25,525,Newham,0.02799500000000,51.54178700000000
575,1400012,21/00493/FOOD,Deli Box London,Other catering premises,E7 8QP,AwaitingInspection,fhrs_awaitinginspection_en-GB,,525,Newham,0.04284000000000,51.54255500000000
576,1261769,20/00300/FOOD,Delic Cook,Takeaway/sandwich shop,E6 6EN,2,fhrs_2_en-GB,2021-06-03,525,Newham,0.03242500000000,51.51820400000000
577,1132124,19/00434/FOOD,Delicia Shop,Retailers - other,E6 3PG,4,fhrs_4_en-GB,2019-08-15,525,Newham,0.03139270000000,51.53945430000000
578,897402,16/00450/FOOD,Delimarche Cafe,Restaurant/Cafe/Canteen,E6 6AD,5,fhrs_5_en-GB,2016-05-18,525,Newham,0.06771940000000,51.51306390000000
579,1174545,19/00787/FOOD,Delious Takeaway,Takeaway/sandwich shop,E15 3BP,2,fhrs_2_en-GB,2020-11-09,525,Newham,0.03201000000000,51.51342700000000
580,1127631,19/00156/FOOD,Dellys Food - Woodgrange Market,Mobile caterer,E7 8HY,5,fhrs_5_en-GB,2019-03-23,525,Newham,0.03012500000000,51.52613000000000
581,1006777,17/00578/FOOD,Delondre Congo Shop,Retailers - other,E7 8QH,4,fhrs_4_en-GB,2018-03-09,525,Newham,0.03012500000000,51.52613000000000
582,1333644,21/00015/FOOD,Delondres Restaurant Ltd,Restaurant/Cafe/Canteen,E13 8SD,1,fhrs_1_en-GB,2021-05-21,525,Newham,0.01777500000000,51.52035400000000
583,1089072,18/00516/FOOD,Denmark Arms,Pub/bar/nightclub,E7 8LE,5,fhrs_5_en-GB,2019-02-14,525,Newham,0.05772500000000,51.52276300000000
584,640707,13/00695/FOOD,Dennis Wines And Spirits,Retailers - other,E6 6WN,0,fhrs_0_en-GB,2021-10-27,525,Newham,0.02457000000000,51.54616300000000
585,1313798,20/00709/FOOD,DeRitz Catering Ltd,Restaurant/Cafe/Canteen,E16 3JP,5,fhrs_5_en-GB,2021-02-10,525,Newham,0.00691200000000,51.52211400000000
586,640894,64960/2000/0/000,Dersingham School,School/college/university,E13 9JU,5,fhrs_5_en-GB,2019-04-24,525,Newham,0.02328260000000,51.50160870000000
587,852731,08/00123/FOOD,Deshi Food Supermarket,Retailers - other,E13 9JU,3,fhrs_3_en-GB,2019-04-26,525,Newham,0.03856199979782,51.51526260375980
588,1286599,20/00549/FOOD,Desi Style Limited,Other catering premises,E13 8EQ,5,fhrs_5_en-GB,2020-12-24,525,Newham,-0.00643100000000,51.52685600000000
589,1434024,21/00823/FOOD,Dessert Delicious,Other catering premises,E6 3PG,AwaitingInspection,fhrs_awaitinginspection_en-GB,,525,Newham,0.03537800000000,51.52301700000000
590,1081963,18/00436/FOOD,Dessert Factory,Restaurant/Cafe/Canteen,E7 9HD,5,fhrs_5_en-GB,2019-03-30,525,Newham,0.03012500000000,51.52613000000000
591,1366507,21/00177/FOOD,Dessert Ice Cream Club,Mobile caterer,E16 4NN,5,fhrs_5_en-GB,2021-09-02,525,Newham,0.04032600000000,51.53050400000000
592,1389150,21/00359/FOOD,Dessert Ice Cream Club - Kiosk 2,Takeaway/sandwich shop,E16 2AU,AwaitingInspection,fhrs_awaitinginspection_en-GB,,525,Newham,0.03240100000000,51.51896800000000
593,1451246,22/00037/FOOD,Dessert Lovers - Unit 11,Restaurant/Cafe/Canteen,E16 3UB,AwaitingInspection,fhrs_awaitinginspection_en-GB,,525,Newham,0.06475700000000,51.50740500000000
594,1274367,20/00407/FOOD,Dessertz Ltd (334C),Restaurant/Cafe/Canteen,E3 3DU,4,fhrs_4_en-GB,2020-10-21,525,Newham,0.00912800000000,51.51647400000000
595,805326,08/00347/FOOD,Dexmoor Limited Stratford Centre,Retailers - other,E13 8SL,5,fhrs_5_en-GB,2018-08-02,525,Newham,0.01003900000000,51.54142200000000
596,1214464,19/01114/FOOD,DGCakes Ltd,Other catering premises,E13 9JU,4,fhrs_4_en-GB,2020-02-09,525,Newham,0.00414200000000,51.53946400000000
597,1006741,17/00526/FOOD,Dhaka Biryani Kitchen,Restaurant/Cafe/Canteen,E6 3BP,4,fhrs_4_en-GB,2021-04-19,525,Newham,0.05928900000000,51.55486600000000
598,1136931,19/00387/FOOD,Dilka Express,Retailers - other,E13 8SD,5,fhrs_5_en-GB,2019-06-11,525,Newham,0.01290270000000,51.51813670000000
599,640955,69030/0383/3/000,Discover,Restaurant/Cafe/Canteen,E16 2RD,5,fhrs_5_en-GB,2018-12-01,525,Newham,-0.00904500000000,51.54599350000000
600,1196466,19/00898/FOOD,Discreet,Other catering premises,E16 4HB,5,fhrs_5_en-GB,2020-03-14,525,Newham,0.02506600000000,51.52970700000000
601,1111925,18/00341/FOOD,Dix Spice Tandoori Trading As Dixy Chicken,Takeaway/sandwich shop,E15 4ES,2,fhrs_2_en-GB,2020-11-24,525,Newham,-0.01241900000000,51.53138200000000
602,1360511,21/00162/FOOD,Dixy Chicken,Takeaway/sandwich shop,E15 4PH,1,fhrs_1_en-GB,2021-02-20,525,Newham,0.04877800000000,51.55144400000000
603,640365,10/00282/FOOD,Dixy Chicken,Takeaway/sandwich shop,E12 5JR,4,fhrs_4_en-GB,2020-12-01,525,Newham,0.06172400000000,51.55416700000000
604,640218,07/00127/FOOD,Dixy Chicken,Takeaway/sandwich shop,E16 4HQ,2,fhrs_2_en-GB,2020-12-01,525,Newham,0.00341580000000,51.53126680000000
605,640238,08/00053/FOOD,Dixy Fried Chicken,Takeaway/sandwich shop,E20 1DB,AwaitingInspection,fhrs_awaitinginspection_en-GB,2019-02-14,525,Newham,0.04504000023007,51.51604080200200
606,1042948,18/00098/FOOD,Dnister Restaurant,Restaurant/Cafe/Canteen,E13 9HN,5,fhrs_5_en-GB,2019-03-19,525,Newham,0.03116000000000,51.53997900000000
607,1156138,19/00653/FOOD,Dockside Kitchen,Other catering premises,E15 2PR,1,fhrs_1_en-GB,2020-02-14,525,Newham,0.02403000000000,51.54178400000000
608,640370,10/00309/FOOD,Dockside News,Retailers - other,E12 5AW,5,fhrs_5_en-GB,2018-11-12,525,Newham,0.03445300000000,51.54719700000000
609,987119,17/00377/FOOD,Dog & Shakes,Mobile caterer,E12 5LU,4,fhrs_4_en-GB,2017-09-25,525,Newham,0.01772520000000,51.50482590000000
610,1245704,20/00180/FOOD,Dolce Ltd - Stagecoach,Other catering premises,E15 3NW,3,fhrs_3_en-GB,2020-11-11,525,Newham,0.03104200000000,51.53764300000000
611,1225024,20/00068/FOOD,Dolce Vita,Restaurant/Cafe/Canteen,E6 5UP,5,fhrs_5_en-GB,2020-11-11,525,Newham,0.04953550000000,51.54559520000000
612,852769,61150/0136/0/000,Domino's Pizza,Takeaway/sandwich shop,E7 8JY,5,fhrs_5_en-GB,2020-02-01,525,Newham,0.06278300000000,51.53420300000000
613,1171356,19/00772/FOOD,Domino's Pizza,Takeaway/sandwich shop,E7 9PJ,5,fhrs_5_en-GB,2019-08-15,525,Newham,0.01866130000000,51.51569940000000
614,718156,14/00739/FOOD,Domino's Pizza,Takeaway/sandwich shop,E7 8DF,5,fhrs_5_en-GB,2018-12-11,525,Newham,-0.00635900000000,51.54434600000000
615,1042934,18/00036/FOOD,Domino's Pizza,Takeaway/sandwich shop,E16 2AA,4,fhrs_4_en-GB,2020-02-15,525,Newham,-0.00634700013325,51.54433441162110
616,960206,16/00760/FOOD,Dona Rita Ltd,Other catering premises,E13 0QZ,5,fhrs_5_en-GB,2017-04-21,525,Newham,0.00656290000000,51.54245400000000
617,1294176,20/00588/FOOD,Donhut,Other catering premises,E12 6RH,5,fhrs_5_en-GB,2021-02-06,525,Newham,0.00652399985120,51.54248046875000
618,865856,68040/0065/0/000,Donovans Ice Cream Van 1,Mobile caterer,E6 2NW,5,fhrs_5_en-GB,2019-03-02,525,Newham,0.04022700000000,51.53086500000000
619,865853,16/00254/FOOD,Donovans Ice Cream Van 2,Mobile caterer,E16 1QB,5,fhrs_5_en-GB,2019-03-02,525,Newham,-0.00635900000000,51.54434500000000
620,1438656,21/00858/FOOD,Donut Bae Ltd,Other catering premises,E20 1GP,AwaitingInspection,fhrs_awaitinginspection_en-GB,,525,Newham,0.06285950000000,51.52703440000000
621,1107743,19/00207/FOOD,Doorstep Dolci,Restaurant/Cafe/Canteen,E20 1EH,5,fhrs_5_en-GB,2019-03-07,525,Newham,0.05564700067043,51.54610824584960
622,1076894,18/00361/FOOD,Dotuns African Takeaway,Other catering premises,E15 4LJ,1,fhrs_1_en-GB,2019-05-18,525,Newham,0.03520800173283,51.53665542602540
623,849301,16/00098/FOOD,Double Tree By Hilton,Hotel/bed & breakfast/guest house,E15 4LL,5,fhrs_5_en-GB,2020-01-27,525,Newham,0.05440800000000,51.55218200000000
624,1377052,21/00270/FOOD,Dough Daddy UK,Restaurant/Cafe/Canteen,E6 1PY,4,fhrs_4_en-GB,2021-11-04,525,Newham,0.04005200000000,51.54854800000000
625,1156148,19/00670/FOOD,Doughnut Time,Retailers - other,E20 1GP,3,fhrs_3_en-GB,2019-05-17,525,Newham,0.02549000000000,51.51068900000000
626,1044791,18/00135/FOOD,Doughnut Time,Restaurant/Cafe/Canteen,E6 6DQ,5,fhrs_5_en-GB,2018-11-19,525,Newham,0.02710800000000,51.50817000000000
627,1422790,21/00727/FOOD,Dr Vape Juice,Retailers - other,E12 6QX,AwaitingInspection,fhrs_awaitinginspection_en-GB,,525,Newham,0.04445800185204,51.50268936157230
628,837066,12/00218/FOOD,Dragonfly Day Nursery,Hospitals/Childcare/Caring Premises,E13 9AR,5,fhrs_5_en-GB,2019-11-06,525,Newham,0.01082300000000,51.51274000000000
629,1269691,20/00356/FOOD,Dream20,Other catering premises,E12 6DB,5,fhrs_5_en-GB,2020-08-27,525,Newham,0.00195900001563,51.54362869262700
630,902491,79630/2002/0/000,Drew Primary School,School/college/university,E6 4ET,5,fhrs_5_en-GB,2018-12-05,525,Newham,0.01079600000000,51.52520400000000
631,1398409,21/00472/FOOD,Drinks On Demand,Other catering premises,E7 8AE,AwaitingInspection,fhrs_awaitinginspection_en-GB,,525,Newham,0.04860600000000,51.53187000000000
632,1411038,21/00610/FOOD,Dripping Flavours,Mobile caterer,E16 3AR,AwaitingInspection,fhrs_awaitinginspection_en-GB,,525,Newham,0.05076180000000,51.53982740000000
633,1289900,20/00568/FOOD,DS Veg & Vegan,Other catering premises,E16 1XL,2,fhrs_2_en-GB,2020-12-17,525,Newham,0.01975400000000,51.53348500000000
634,641152,77830/0005/0/000,DSK,Retailers - other,E16 2AD,3,fhrs_3_en-GB,2018-12-24,525,Newham,0.01772520000000,51.50482590000000
635,1170234,19/00751/FOOD,Due Amici,Restaurant/Cafe/Canteen,E16 1EA,1,fhrs_1_en-GB,2021-02-13,525,Newham,0.03287000000000,51.55246700000000
636,805363,69040/0347/0/000,Duncans Dispensing Chemist,Retailers - other,E6 4AD,Exempt,fhrs_exempt_en-GB,2018-08-02,525,Newham,0.01262300000000,51.53362600000000
637,1204812,19/00938/FOOD,Dydy 2019,Retailers - other,E15 1BB,1,fhrs_1_en-GB,2019-12-10,525,Newham,0.03910800000000,51.53068600000000
638,1196456,19/00880/FOOD,D'zerts,Restaurant/Cafe/Canteen,E13 0HQ,5,fhrs_5_en-GB,2020-01-09,525,Newham,0.05270000000000,51.53250900000000
639,1281529,20/00454/FOOD,E12 Chicken And Pizza,Takeaway/sandwich shop,E6 3BB,5,fhrs_5_en-GB,2020-10-14,525,Newham,0.05569870000000,51.52777160000000
640,640231,07/00289/FOOD,E12 Kebabish,Restaurant/Cafe/Canteen,E6 1JG,4,fhrs_4_en-GB,2020-11-09,525,Newham,0.05685100000000,51.52416200000000
641,1130122,19/00251/FOOD,E13 Grill & Restaurant,Restaurant/Cafe/Canteen,E13 0JW,5,fhrs_5_en-GB,2019-04-10,525,Newham,0.03100200000000,51.52736500000000
642,987128,17/00392/FOOD,E13 Kebabish,Takeaway/sandwich shop,E16 2AA,5,fhrs_5_en-GB,2018-08-22,525,Newham,0.00403400000000,51.54423200000000
643,845333,16/00017/FOOD,"E16 Bakery, Cafe & Lounge",Restaurant/Cafe/Canteen,E7 0LJ,5,fhrs_5_en-GB,2018-11-15,525,Newham,-0.00026670000000,51.53732800000000
644,934065,16/00798/FOOD,E16 Coffee,Restaurant/Cafe/Canteen,E15 3ET,5,fhrs_5_en-GB,2018-11-15,525,Newham,0.04537100000000,51.55009200000000
645,1339326,21/00076/FOOD,E20 On Twelve,Restaurant/Cafe/Canteen,E6 1PW,5,fhrs_5_en-GB,2021-08-25,525,Newham,-0.00635900000000,51.54434600000000
646,1089066,18/00510/FOOD,E7 Food Centre,Retailers - other,E6 3BA,4,fhrs_4_en-GB,2019-01-18,525,Newham,0.01235500000000,51.52035800000000
647,1453342,22/00068/FOOD,EA Eatz,Other catering premises,E6 3HN,AwaitingInspection,fhrs_awaitinginspection_en-GB,,525,Newham,0.02082700000000,51.55315200000000
648,640896,65420/2001/2/000,Earlham Primary School,School/college/university,E6 3RR,5,fhrs_5_en-GB,2021-03-18,525,Newham,0.06467799842358,51.50122833251950
649,971780,17/00280/FOOD,Early Start Education Nursery,Hospitals/Childcare/Caring Premises,E13 9EZ,5,fhrs_5_en-GB,2020-02-27,525,Newham,-0.00918999966234,51.54202270507810
650,1107745,19/00215/FOOD,Earths Greatest,Other catering premises,E15 1NS,5,fhrs_5_en-GB,2019-03-25,525,Newham,0.03637000173330,51.53295516967770
651,837085,15/00524/FOOD,East Ham Care Centre,Other catering premises,E15 2SP,5,fhrs_5_en-GB,2021-03-19,525,Newham,0.00741300000000,51.54302200000000
652,962553,17/00226/FOOD,East Ham Fried Chicken,Takeaway/sandwich shop,E12 5AD,3,fhrs_3_en-GB,2020-02-28,525,Newham,0.02773621480776,51.55205050309260
653,640986,69060/0275/0/000,East Ham Newsagent,Retailers - other,E20 1EQ,5,fhrs_5_en-GB,2017-07-25,525,Newham,0.01079500000000,51.52520400000000
654,1313794,20/00705/FOOD,East Ham South Conservative Club,Pub/bar/nightclub,E16 4LF,5,fhrs_5_en-GB,2021-07-07,525,Newham,0.05659200000000,51.53352030000000
655,950525,17/00169/FOOD,East London Rugby Club,Pub/bar/nightclub,E7 0AE,5,fhrs_5_en-GB,2019-02-20,525,Newham,-0.00771500000000,51.54797400000000
656,919719,76570/0002/0/000,East London Wine,Retailers - other,E16 2LS,5,fhrs_5_en-GB,2019-10-29,525,Newham,-0.01806600019336,51.53879928588870
657,919718,76180/0189/0/000,East London Wines Ltd,Retailers - other,E20 1JN,Exempt,fhrs_exempt_en-GB,2018-07-30,525,Newham,0.05355000000000,51.53183800000000
658,1250621,20/00218/FOOD,East Meets West,Other catering premises,E13 9DB,4,fhrs_4_en-GB,2020-12-23,525,Newham,0.02617900000000,51.55056900000000
659,1225023,20/00067/FOOD,East Ocean,Takeaway/sandwich shop,E15 4LP,2,fhrs_2_en-GB,2021-11-22,525,Newham,0.03398600000000,51.53447100000000
660,1414019,21/00635/FOOD,East Wok,Takeaway/sandwich shop,E7 0LB,AwaitingInspection,fhrs_awaitinginspection_en-GB,,525,Newham,-0.00930870000000,51.54842520000000
661,1136932,19/00467/FOOD,Eastender Supermarket,Retailers - other,E13 0HQ,5,fhrs_5_en-GB,2020-09-02,525,Newham,0.03398600000000,51.53447100000000
662,641059,74180/0359/0/000,Eastenders Kebab,Takeaway/sandwich shop,E6 2JX,3,fhrs_3_en-GB,2019-11-21,525,Newham,0.03398600000000,51.53447100000000
663,1289899,20/00566/FOOD,Eastern Delight,Takeaway/sandwich shop,E20 1AD,4,fhrs_4_en-GB,2020-10-22,525,Newham,0.04920950000000,51.54604150000000
664,851156,16/00048/FOOD,Eastern European Butchers Rear Of 564,Retailers - other,E20 2ST,5,fhrs_5_en-GB,2016-02-03,525,Newham,-0.00493304366751,51.54613418798650
665,640213,07/00046/FOOD,Eastern European Delicatessen,Retailers - other,E6 3AG,4,fhrs_4_en-GB,2018-10-15,525,Newham,0.05265600000000,51.55267100000000
666,1266739,20/00335/FOOD,Eastern Kitchen Indian Takeaway,Takeaway/sandwich shop,E7 0NG,4,fhrs_4_en-GB,2020-11-16,525,Newham,-0.00635900022462,51.54434585571290
